NCESSCH,LEAID,NAME,OPSTFIPS,STREET,CITY,STATE,ZIP,STFIP,CNTY,NMCNTY,LOCALE,LAT,LON,CBSA,NMCBSA,CBSATYPE,CSA,NMCSA,NECTA,NMNECTA,CD,SLDL,SLDU,SCHOOLYEAR
060000103278,0600001,Vasquez High,06,33630 Red Rover Mine Rd.,Acton,CA,93510,06,06037,Los Angeles County,41,34.4936,-118.2161,31080,"Los Angeles-Long Beach-Anaheim, CA",1,348,"Los Angeles-Long Beach, CA",N,N,0625,06036,06021,2019-2020
060000107534,0600001,Meadowlark Elementary,06,3015 W. Sacramento St.,Acton,CA,93510,06,06037,Los Angeles County,42,34.4743,-118.1856,31080,"Los Angeles-Long Beach-Anaheim, CA",1,348,"Los Angeles-Long Beach, CA",N,N,0625,06036,06021,2019-2020
060000109444,0600001,High Desert,06,3620 Antelope Woods Rd.,Acton,CA,93510,06,06037,Los Angeles County,41,34.4914,-118.1947,31080,"Los Angeles-Long Beach-Anaheim, CA",1,348,"Los Angeles-Long Beach, CA",N,N,0625,06036,06021,2019-2020
060002503570,0600025,Aurelia Pennekamp Elementary,06,110 S. Rowell,Manhattan Beach,CA,90266,06,06037,Los Angeles County,21,33.8788,-118.389,31080,"Los Angeles-Long Beach-Anaheim, CA",1,348,"Los Angeles-Long Beach, CA",N,N,0633,06066,06026,2019-2020
060002503573,0600025,Grand View Elementary,06,455 24th St.,Manhattan Beach,CA,90266,06,06037,Los Angeles County,21,33.8944,-118.4126,31080,"Los Angeles-Long Beach-Anaheim, CA",1,348,"Los Angeles-Long Beach, CA",N,N,0633,06066,06026,2019-2020
060002503575,0600025,Meadows Avenue Elementary,06,1200 Meadows Ave.,Manhattan Beach,CA,90266,06,06037,Los Angeles County,21,33.8889,-118.3911,31080,"Los Angeles-Long Beach-Anaheim, CA",1,348,"Los Angeles-Long Beach, CA",N,N,0633,06066,06026,2019-2020
060002503576,0600025,Pacific Elementary,06,1200 Pacific Ave.,Manhattan Beach,CA,90266,06,06037,Los Angeles County,21,33.8895,-118.4028,31080,"Los Angeles-Long Beach-Anaheim, CA",1,348,"Los Angeles-Long Beach, CA",N,N,0633,06066,06026,2019-2020
060002505922,0600025,Opal Robinson Elementary,06,80 Morningside Dr.,Manhattan Beach,CA,90266,06,06037,Los Angeles County,21,33.8779,-118.4043,31080,"Los Angeles-Long Beach-Anaheim, CA",1,348,"Los Angeles-Long Beach, CA",N,N,0633,06066,06026,2019-2020
060002506328,0600025,Mira Costa High,06,1401 Artesia Blvd.,Manhattan Beach,CA,90266,06,06037,Los Angeles County,21,33.8747,-118.3894,31080,"Los Angeles-Long Beach-Anaheim, CA",1,348,"Los Angeles-Long Beach, CA",N,N,0633,06066,06026,2019-2020
060002507535,0600025,Manhattan Beach Middle,06,1501 N. Redondo Ave.,Manhattan Beach,CA,90266,06,06037,Los Angeles County,21,33.8896,-118.3837,31080,"Los Angeles-Long Beach-Anaheim, CA",1,348,"Los Angeles-Long Beach, CA",N,N,0633,06066,06026,2019-2020
060002513480,0600025,Manhattan Beach Preschool,06,1431 15th St.,Manhattan Beach,CA,90266,06,06037,Los Angeles County,21,33.889,-118.3884,31080,"Los Angeles-Long Beach-Anaheim, CA",1,348,"Los Angeles-Long Beach, CA",N,N,0633,06066,06026,2019-2020
060003202227,0600032,Patricia Dreizler Continuation High,06,1000 Del Amo St.,Redondo Beach,CA,90277,06,06037,Los Angeles County,21,33.84775,-118.380438,31080,"Los Angeles-Long Beach-Anaheim, CA",1,348,"Los Angeles-Long Beach, CA",N,N,0633,06066,06026,2019-2020
060003204949,0600032,Adams Middle,06,2600 Ripley Ave.,Redondo Beach,CA,90278,06,06037,Los Angeles County,21,33.866015,-118.363886,31080,"Los Angeles-Long Beach-Anaheim, CA",1,348,"Los Angeles-Long Beach, CA",N,N,0633,06066,06026,2019-2020
060003204950,0600032,Alta Vista Elementary,06,815 Knob Hill Ave.,Redondo Beach,CA,90277,06,06037,Los Angeles County,21,33.828888,-118.378426,31080,"Los Angeles-Long Beach-Anaheim, CA",1,348,"Los Angeles-Long Beach, CA",N,N,0633,06066,06026,2019-2020
060003204951,0600032,Beryl Heights Elementary,06,920 Beryl St.,Redondo Beach,CA,90277,06,06037,Los Angeles County,21,33.852045,-118.383842,31080,"Los Angeles-Long Beach-Anaheim, CA",1,348,"Los Angeles-Long Beach, CA",N,N,0633,06066,06026,2019-2020
060003204952,0600032,Birney Elementary,06,1600 Green Ln.,Redondo Beach,CA,90278,06,06037,Los Angeles County,21,33.869541,-118.376321,31080,"Los Angeles-Long Beach-Anaheim, CA",1,348,"Los Angeles-Long Beach, CA",N,N,0633,06066,06026,2019-2020
060003204955,0600032,Parras (Nick G.) Middle,06,200 N. Lucia,Redondo Beach,CA,90277,06,06037,Los Angeles County,21,33.845065,-118.377719,31080,"Los Angeles-Long Beach-Anaheim, CA",1,348,"Los Angeles-Long Beach, CA",N,N,0633,06066,06026,2019-2020
060003204956,0600032,Jefferson Elementary,06,600 Harkness Ln.,Redondo Beach,CA,90278,06,06037,Los Angeles County,21,33.860425,-118.380208,31080,"Los Angeles-Long Beach-Anaheim, CA",1,348,"Los Angeles-Long Beach, CA",N,N,0633,06066,06026,2019-2020
060003204957,0600032,Lincoln Elementary,06,2223 Plant Ave.,Redondo Beach,CA,90278,06,06037,Los Angeles County,21,33.881648,-118.371034,31080,"Los Angeles-Long Beach-Anaheim, CA",1,348,"Los Angeles-Long Beach, CA",N,N,0633,06066,06026,2019-2020
060003204958,0600032,Madison Elementary,06,2200 MacKay Ln.,Redondo Beach,CA,90278,06,06037,Los Angeles County,21,33.875187,-118.367929,31080,"Los Angeles-Long Beach-Anaheim, CA",1,348,"Los Angeles-Long Beach, CA",N,N,0633,06066,06026,2019-2020
060003204960,0600032,Tulita Elementary,06,1520 Prospect Ave.,Redondo Beach,CA,90277,06,06037,Los Angeles County,21,33.820682,-118.376079,31080,"Los Angeles-Long Beach-Anaheim, CA",1,348,"Los Angeles-Long Beach, CA",N,N,0633,06066,06026,2019-2020
060003204961,0600032,Washington Elementary,06,1100 Lilienthal Ln.,Redondo Beach,CA,90278,06,06037,Los Angeles County,21,33.86441,-118.364863,31080,"Los Angeles-Long Beach-Anaheim, CA",1,348,"Los Angeles-Long Beach, CA",N,N,0633,06066,06026,2019-2020
060003206330,0600032,Redondo Union High,06,One Sea Hawk Way,Redondo Beach,CA,90277,06,06037,Los Angeles County,21,33.845443,-118.384503,31080,"Los Angeles-Long Beach-Anaheim, CA",1,348,"Los Angeles-Long Beach, CA",N,N,0633,06066,06026,2019-2020
060003212165,0600032,Redondo Beach Learning Academy,06,1000 Del Amo St.,Redondo Beach,CA,90277,06,06037,Los Angeles County,21,33.84775,-118.380438,31080,"Los Angeles-Long Beach-Anaheim, CA",1,348,"Los Angeles-Long Beach, CA",N,N,0633,06066,06026,2019-2020
060010310916,0600103,La Puente Valley ROP,06,341 La Seda Rd.,La Puente,CA,91744,06,06037,Los Angeles County,21,34.012665,-117.898546,31080,"Los Angeles-Long Beach-Anaheim, CA",1,348,"Los Angeles-Long Beach, CA",N,N,0632,06057,06022,2019-2020
060010510918,0600105,East San Gabriel Valley ROP,06,1501 Del Norte Ave.,West Covina,CA,91790,06,06037,Los Angeles County,21,34.0768,-117.9376,31080,"Los Angeles-Long Beach-Anaheim, CA",1,348,"Los Angeles-Long Beach, CA",N,N,0632,06048,06022,2019-2020
060010610919,0600106,Tri-Cities ROP,06,10800 Ben Avon St. Unit E,Whittier,CA,90606,06,06037,Los Angeles County,21,33.97173,-118.079463,31080,"Los Angeles-Long Beach-Anaheim, CA",1,348,"Los Angeles-Long Beach, CA",N,N,0638,06057,06032,2019-2020
060010710920,0600107,Southern California ROC,06,2300 Crenshaw Blvd.,Torrance,CA,90501,06,06037,Los Angeles County,12,33.824834,-118.326504,31080,"Los Angeles-Long Beach-Anaheim, CA",1,348,"Los Angeles-Long Beach, CA",N,N,0643,06066,06035,2019-2020
060010810921,0600108,Long Beach Unified School District ROP,06,3701B E. Willow St.,Long Beach,CA,90815,06,06037,Los Angeles County,11,33.8054,-118.1493,31080,"Los Angeles-Long Beach-Anaheim, CA",1,348,"Los Angeles-Long Beach, CA",N,N,0647,06070,06033,2019-2020
060010910922,0600109,Los Angeles Unified School District ROCP,06,333 S. Beaudry Ave.,Los Angeles,CA,90017,06,06037,Los Angeles County,11,34.0565,-118.2574,31080,"Los Angeles-Long Beach-Anaheim, CA",1,348,"Los Angeles-Long Beach, CA",N,N,0634,06053,06024,2019-2020
060011010923,0600110,Los Angeles County ROP,06,9300 Imperial Hwy. Clark Bldg.,Downey,CA,90242,06,06037,Los Angeles County,21,33.916402,-118.129286,31080,"Los Angeles-Long Beach-Anaheim, CA",1,348,"Los Angeles-Long Beach, CA",N,N,0640,06058,06032,2019-2020
060011110924,0600111,Hart ROP,06,21515 Centre Point Pkwy.,Santa Clarita,CA,91350,06,06037,Los Angeles County,21,34.3996,-118.4926,31080,"Los Angeles-Long Beach-Anaheim, CA",1,348,"Los Angeles-Long Beach, CA",N,N,0625,06038,06021,2019-2020
060011210925,0600112,Antelope Valley ROP,06,1156 E. Ave. S,Palmdale,CA,93550,06,06037,Los Angeles County,21,34.5574,-118.1067,31080,"Los Angeles-Long Beach-Anaheim, CA",1,348,"Los Angeles-Long Beach, CA",N,N,0625,06036,06021,2019-2020
060011310926,0600113,Compton Unified ROP,06,700 N. Bullis Rd.,Compton,CA,90221,06,06037,Los Angeles County,21,33.9007,-118.2066,31080,"Los Angeles-Long Beach-Anaheim, CA",1,348,"Los Angeles-Long Beach, CA",N,N,0644,06064,06035,2019-2020
060011410927,0600114,San Antonio ROP,06,1425 E. Holt Ave. Ste. 101,Pomona,CA,91767,06,06037,Los Angeles County,21,34.0633,-117.7219,31080,"Los Angeles-Long Beach-Anaheim, CA",1,348,"Los Angeles-Long Beach, CA",N,N,0635,06052,06020,2019-2020
060012110996,0600121,North Orange County ROP,06,385 N. Muller St.,Anaheim,CA,92801,06,06059,Orange County,11,33.836606,-117.950815,31080,"Los Angeles-Long Beach-Anaheim, CA",1,348,"Los Angeles-Long Beach, CA",N,N,0646,06065,06029,2019-2020
060012210997,0600122,College and Career Advantage,06,33122 Valle Rd.,San Juan Capistrano,CA,92675,06,06059,Orange County,21,33.480054,-117.6699,31080,"Los Angeles-Long Beach-Anaheim, CA",1,348,"Los Angeles-Long Beach, CA",N,N,0649,06073,06036,2019-2020
060012310998,0600123,Coastline ROP,06,1001 Presidio Sq.,Costa Mesa,CA,92626,06,06059,Orange County,12,33.6711,-117.9009,31080,"Los Angeles-Long Beach-Anaheim, CA",1,348,"Los Angeles-Long Beach, CA",N,N,0648,06074,06037,2019-2020
060012410999,0600124,Central Orange County CTE Partnership (CTEp),06,2910 Red Hill Ave. Ste. 200,Costa Mesa,CA,92626,06,06059,Orange County,12,33.667992,-117.880056,31080,"Los Angeles-Long Beach-Anaheim, CA",1,348,"Los Angeles-Long Beach, CA",N,N,0648,06074,06037,2019-2020
060015310928,0600153,Century High,06,20 S. Marengo Ave.,Alhambra,CA,91801,06,06037,Los Angeles County,21,34.090661,-118.141227,31080,"Los Angeles-Long Beach-Anaheim, CA",1,348,"Los Angeles-Long Beach, CA",N,N,0627,06049,06022,2019-2020
060015310929,0600153,Alhambra High,06,101 S. Second St.,Alhambra,CA,91801,06,06037,Los Angeles County,21,34.0929,-118.1288,31080,"Los Angeles-Long Beach-Anaheim, CA",1,348,"Los Angeles-Long Beach, CA",N,N,0627,06049,06022,2019-2020
060015310930,0600153,Mark Keppel High,06,501 E. Hellman Ave.,Alhambra,CA,91801,06,06037,Los Angeles County,21,34.0705,-118.1156,31080,"Los Angeles-Long Beach-Anaheim, CA",1,348,"Los Angeles-Long Beach, CA",N,N,0627,06049,06022,2019-2020
060015310931,0600153,San Gabriel High,06,801 Ramona St.,San Gabriel,CA,91776,06,06037,Los Angeles County,21,34.0933,-118.1087,31080,"Los Angeles-Long Beach-Anaheim, CA",1,348,"Los Angeles-Long Beach, CA",N,N,0627,06049,06022,2019-2020
060015310932,0600153,Independence High (Alternative),06,20 S. Marengo Ave.,Alhambra,CA,91801,06,06037,Los Angeles County,21,34.090661,-118.141227,31080,"Los Angeles-Long Beach-Anaheim, CA",1,348,"Los Angeles-Long Beach, CA",N,N,0627,06049,06022,2019-2020
060015310934,0600153,Brightwood Elementary,06,1701 Brightwood St.,Monterey Park,CA,91754,06,06037,Los Angeles County,21,34.0461,-118.1526,31080,"Los Angeles-Long Beach-Anaheim, CA",1,348,"Los Angeles-Long Beach, CA",N,N,0627,06049,06022,2019-2020
060015310935,0600153,Emery Park Elementary,06,2821 W. Commonwealth Ave.,Alhambra,CA,91803,06,06037,Los Angeles County,21,34.0881,-118.1547,31080,"Los Angeles-Long Beach-Anaheim, CA",1,348,"Los Angeles-Long Beach, CA",N,N,0627,06049,06022,2019-2020
060015310936,0600153,Fremont Elementary,06,2001 S. Elm St.,Alhambra,CA,91803,06,06037,Los Angeles County,21,34.0707,-118.1509,31080,"Los Angeles-Long Beach-Anaheim, CA",1,348,"Los Angeles-Long Beach, CA",N,N,0627,06049,06022,2019-2020
060015310937,0600153,Garfield Elementary,06,110 W. McLean St.,Alhambra,CA,91801,06,06037,Los Angeles County,21,34.1011,-118.1329,31080,"Los Angeles-Long Beach-Anaheim, CA",1,348,"Los Angeles-Long Beach, CA",N,N,0627,06049,06022,2019-2020
060015310938,0600153,Granada Elementary,06,100 S. Granada Ave.,Alhambra,CA,91801,06,06037,Los Angeles County,21,34.0984,-118.1167,31080,"Los Angeles-Long Beach-Anaheim, CA",1,348,"Los Angeles-Long Beach, CA",N,N,0627,06049,06022,2019-2020
060015310939,0600153,Marguerita Elementary,06,1603 S. Marguerita Ave.,Alhambra,CA,91803,06,06037,Los Angeles County,21,34.0749,-118.1385,31080,"Los Angeles-Long Beach-Anaheim, CA",1,348,"Los Angeles-Long Beach, CA",N,N,0627,06049,06022,2019-2020
060015310940,0600153,Martha Baldwin Elementary,06,900 S. Almansor St.,Alhambra,CA,91801,06,06037,Los Angeles County,21,34.085,-118.1159,31080,"Los Angeles-Long Beach-Anaheim, CA",1,348,"Los Angeles-Long Beach, CA",N,N,0627,06049,06022,2019-2020
060015310941,0600153,Monterey Highlands Elementary,06,400 Casuda Canyon Dr.,Monterey Park,CA,91754,06,06037,Los Angeles County,21,34.0578,-118.1549,31080,"Los Angeles-Long Beach-Anaheim, CA",1,348,"Los Angeles-Long Beach, CA",N,N,0627,06049,06022,2019-2020
060015310942,0600153,Park Elementary,06,301 N. Marengo Ave.,Alhambra,CA,91801,06,06037,Los Angeles County,21,34.0953,-118.1429,31080,"Los Angeles-Long Beach-Anaheim, CA",1,348,"Los Angeles-Long Beach, CA",N,N,0627,06049,06022,2019-2020
060015310943,0600153,Ramona Elementary,06,509 W. Norwood Pl.,Alhambra,CA,91803,06,06037,Los Angeles County,21,34.0762,-118.1286,31080,"Los Angeles-Long Beach-Anaheim, CA",1,348,"Los Angeles-Long Beach, CA",N,N,0627,06049,06022,2019-2020
060015310944,0600153,Repetto Elementary,06,650 S. Grandridge Ave.,Monterey Park,CA,91754,06,06037,Los Angeles County,21,34.0536,-118.1283,31080,"Los Angeles-Long Beach-Anaheim, CA",1,348,"Los Angeles-Long Beach, CA",N,N,0627,06049,06022,2019-2020
060015310945,0600153,William Northrup Elementary,06,409 S. Atlantic Blvd.,Alhambra,CA,91801,06,06037,Los Angeles County,21,34.0863,-118.135,31080,"Los Angeles-Long Beach-Anaheim, CA",1,348,"Los Angeles-Long Beach, CA",N,N,0627,06049,06022,2019-2020
060015310946,0600153,Ynez Elementary,06,120 S. Ynez Ave.,Monterey Park,CA,91754,06,06037,Los Angeles County,21,34.0614,-118.1286,31080,"Los Angeles-Long Beach-Anaheim, CA",1,348,"Los Angeles-Long Beach, CA",N,N,0627,06049,06022,2019-2020
060142806990,0601428,Juan De Anza Elementary,06,12110 Hindry Ave.,Hawthorne,CA,90250,06,06037,Los Angeles County,21,33.922432,-118.371631,31080,"Los Angeles-Long Beach-Anaheim, CA",1,348,"Los Angeles-Long Beach, CA",N,N,0643,06062,06035,2019-2020
060142806992,0601428,Juan Cabrillo Elementary,06,5309 W. 135th St.,Hawthorne,CA,90250,06,06037,Los Angeles County,21,33.910267,-118.372223,31080,"Los Angeles-Long Beach-Anaheim, CA",1,348,"Los Angeles-Long Beach, CA",N,N,0643,06062,06035,2019-2020
060142806993,0601428,Richard Henry Dana Middle,06,5504 W. 135th St.,Hawthorne,CA,90250,06,06037,Los Angeles County,21,33.90876,-118.376525,31080,"Los Angeles-Long Beach-Anaheim, CA",1,348,"Los Angeles-Long Beach, CA",N,N,0643,06062,06035,2019-2020
060142807146,0601428,Peter Burnett Elementary,06,5403 W. 138th St.,Hawthorne,CA,90250,06,06037,Los Angeles County,21,33.906946,-118.375218,31080,"Los Angeles-Long Beach-Anaheim, CA",1,348,"Los Angeles-Long Beach, CA",N,N,0643,06062,06035,2019-2020
060142814278,0601428,Success Learning Center,06,13530 Aviation Blvd.,Hawthorne,CA,90250,06,06037,Los Angeles County,21,33.908026,-118.378282,31080,"Los Angeles-Long Beach-Anaheim, CA",1,348,"Los Angeles-Long Beach, CA",N,N,0643,06062,06035,2019-2020
060144014016,0601440,CA Advancing Pathways for Students in Los Angeles Co,06,16703 S. Clark Ave.,Bellflower,CA,90706,06,06037,Los Angeles County,21,33.882541,-118.13434,31080,"Los Angeles-Long Beach-Anaheim, CA",1,348,"Los Angeles-Long Beach, CA",N,N,0638,06058,06032,2019-2020
060146112419,0601461,Magnolia Science Academy Santa Ana,06,2840 W. 1st St.,Santa Ana,CA,92703,06,06059,Orange County,11,33.74452,-117.908161,31080,"Los Angeles-Long Beach-Anaheim, CA",1,348,"Los Angeles-Long Beach, CA",N,N,0646,06069,06034,2019-2020
060146613973,0601466,Girls Athletic Leadership School Los Angeles,06,8015 Van Nuys Blvd.,Panorama City,CA,91402,06,06037,Los Angeles County,11,34.21658,-118.449621,31080,"Los Angeles-Long Beach-Anaheim, CA",1,348,"Los Angeles-Long Beach, CA",N,N,0629,06046,06018,2019-2020
060147014100,0601470,Crete Academy,06,6103 Crenshaw Blvd.,Los Angeles,CA,90043,06,06037,Los Angeles County,11,33.98476,-118.331461,31080,"Los Angeles-Long Beach-Anaheim, CA",1,348,"Los Angeles-Long Beach, CA",N,N,0637,06054,06030,2019-2020
060147110830,0601471,Accelerated Charter Elementary,06,3914 S. Main St.,Los Angeles,CA,90037,06,06037,Los Angeles County,11,34.01157,-118.273641,31080,"Los Angeles-Long Beach-Anaheim, CA",1,348,"Los Angeles-Long Beach, CA",N,N,0640,06059,06030,2019-2020
060147610847,0601476,Camino Nuevo Charter High,06,1215 W. Miramar St.,Los Angeles,CA,90026,06,06037,Los Angeles County,11,34.058019,-118.257875,31080,"Los Angeles-Long Beach-Anaheim, CA",1,348,"Los Angeles-Long Beach, CA",N,N,0634,06051,06024,2019-2020
060147711630,0601477,New Heights Charter,06,2202 W. MLK Jr Blvd.,Los Angeles,CA,90008,06,06037,Los Angeles County,11,34.01052,-118.317651,31080,"Los Angeles-Long Beach-Anaheim, CA",1,348,"Los Angeles-Long Beach, CA",N,N,0637,06054,06030,2019-2020
060148213793,0601482,SCALE Leadership Academy,06,32248 Crown Valley Rd.,Acton,CA,93510,06,06037,Los Angeles County,42,34.472708,-118.196768,31080,"Los Angeles-Long Beach-Anaheim, CA",1,348,"Los Angeles-Long Beach, CA",N,N,0625,06036,06021,2019-2020
060148412812,0601484,PUC Triumph Charter Academy and PUC Triumph Charter High,06,13361 Glenoaks Blvd.,Sylmar,CA,91342,06,06037,Los Angeles County,11,34.31412,-118.459871,31080,"Los Angeles-Long Beach-Anaheim, CA",1,348,"Los Angeles-Long Beach, CA",N,N,0629,06039,06018,2019-2020
060148600162,0601486,Palm Lane Elementary Charter,06,1646 W. Palm Ln.,Anaheim,CA,92802,06,06059,Orange County,11,33.81558,-117.938151,31080,"Los Angeles-Long Beach-Anaheim, CA",1,348,"Los Angeles-Long Beach, CA",N,N,0646,06065,06029,2019-2020
060148804593,0601488,Palisades Charter High,06,15777 Bowdoin St.,Pacific Palisades,CA,90272,06,06037,Los Angeles County,11,34.047871,-118.531105,31080,"Los Angeles-Long Beach-Anaheim, CA",1,348,"Los Angeles-Long Beach, CA",N,N,0633,06050,06026,2019-2020
060149008724,0601490,CHIME Institute's Schwarzenegger Community,06,19722 Collier St.,Woodland Hills,CA,91364,06,06037,Los Angeles County,11,34.165223,-118.562771,31080,"Los Angeles-Long Beach-Anaheim, CA",1,348,"Los Angeles-Long Beach, CA",N,N,0630,06045,06027,2019-2020
060149410517,0601494,Los Angeles Leadership Academy,06,234 E. Ave. 33,Los Angeles,CA,90031,06,06037,Los Angeles County,11,34.08269,-118.210291,31080,"Los Angeles-Long Beach-Anaheim, CA",1,348,"Los Angeles-Long Beach, CA",N,N,0634,06051,06024,2019-2020
060149512247,0601495,Wilder's Preparatory Academy Charter Middle,06,830 N. La Brea Ave.,Inglewood,CA,90302,06,06037,Los Angeles County,21,33.97436,-118.357061,31080,"Los Angeles-Long Beach-Anaheim, CA",1,348,"Los Angeles-Long Beach, CA",N,N,0643,06062,06035,2019-2020
060150513832,0601505,Da Vinci Communications,06,201 N. Douglas,El Segundo,CA,90245,06,06037,Los Angeles County,21,33.917966,-118.384252,31080,"Los Angeles-Long Beach-Anaheim, CA",1,348,"Los Angeles-Long Beach, CA",N,N,0633,06062,06026,2019-2020
060150712162,0601507,ISANA Himalia Academy,06,5100 S. BRd.way Ave.,Los Angeles,CA,90037,06,06037,Los Angeles County,11,33.996211,-118.277976,31080,"Los Angeles-Long Beach-Anaheim, CA",1,348,"Los Angeles-Long Beach, CA",N,N,0640,06059,06030,2019-2020
060151914018,0601519,EPIC Charter (Excellence Performance Innovation Citizenship),06,100 S. Anaheim Blvd. Ste. 150,Anaheim,CA,92805,06,06059,Orange County,11,33.83536,-117.913001,31080,"Los Angeles-Long Beach-Anaheim, CA",1,348,"Los Angeles-Long Beach, CA",N,N,0646,06069,06034,2019-2020
060152412447,0601524,Aspire Titan Academy,06,6720 S. Alameda St.,Huntington Park,CA,90255,06,06037,Los Angeles County,21,33.978062,-118.23423,31080,"Los Angeles-Long Beach-Anaheim, CA",1,348,"Los Angeles-Long Beach, CA",N,N,0640,06059,06033,2019-2020
060152611928,0601526,Monsenor Oscar Romero Charter Middle,06,1157 S. Berendo St.,Los Angeles,CA,90006,06,06037,Los Angeles County,11,34.04999,-118.294531,31080,"Los Angeles-Long Beach-Anaheim, CA",1,348,"Los Angeles-Long Beach, CA",N,N,0634,06053,06024,2019-2020
060152913966,0601529,Valor Academy Elementary,06,17081 Devonshire St.,Northridge,CA,91325,06,06037,Los Angeles County,11,34.25847,-118.505731,31080,"Los Angeles-Long Beach-Anaheim, CA",1,348,"Los Angeles-Long Beach, CA",N,N,0630,06038,06018,2019-2020
060153013768,0601530,PUC Community Charter Elementary,06,14019 Sayre St.,Sylmar,CA,91342,06,06037,Los Angeles County,11,34.30646,-118.438651,31080,"Los Angeles-Long Beach-Anaheim, CA",1,348,"Los Angeles-Long Beach, CA",N,N,0629,06039,06018,2019-2020
060153211665,0601532,Bright Star Secondary Charter Academy,06,1600 W. Imperial Hwy.,Los Angeles,CA,90047,06,06037,Los Angeles County,21,33.928499,-118.306582,31080,"Los Angeles-Long Beach-Anaheim, CA",1,348,"Los Angeles-Long Beach, CA",N,N,0643,06062,06035,2019-2020
060153411628,0601534,Los Angeles Academy of Arts and Enterprise,06,1200 W. Colton St.,Los Angeles,CA,90026,06,06037,Los Angeles County,11,34.060819,-118.255441,31080,"Los Angeles-Long Beach-Anaheim, CA",1,348,"Los Angeles-Long Beach, CA",N,N,0634,06051,06024,2019-2020
060153514009,0601535,Intellectual Virtues Academy,06,1637 Long Beach Blvd.,Long Beach,CA,90813,06,06037,Los Angeles County,11,33.78813,-118.189911,31080,"Los Angeles-Long Beach-Anaheim, CA",1,348,"Los Angeles-Long Beach, CA",N,N,0647,06070,06033,2019-2020
060153808721,0601538,Multicultural Learning Center,06,7510 DeSoto Ave.,Canoga Park,CA,91303,06,06037,Los Angeles County,11,34.206945,-118.587091,31080,"Los Angeles-Long Beach-Anaheim, CA",1,348,"Los Angeles-Long Beach, CA",N,N,0630,06045,06027,2019-2020
060153912939,0601539,Animo Phillis Wheatley Charter Middle,06,12226 S. W.ern Ave.,Los Angeles,CA,90047,06,06037,Los Angeles County,21,33.92053,-118.306791,31080,"Los Angeles-Long Beach-Anaheim, CA",1,348,"Los Angeles-Long Beach, CA",N,N,0643,06062,06035,2019-2020
060154013591,0601540,Environmental Charter Middle - Inglewood,06,3600 W. Imperial Hwy.,Inglewood,CA,90303,06,06037,Los Angeles County,21,33.93042,-118.335761,31080,"Los Angeles-Long Beach-Anaheim, CA",1,348,"Los Angeles-Long Beach, CA",N,N,0643,06062,06035,2019-2020
060154112614,0601541,ISANA Palmati Academy,06,6501 Laurel Canyon Blvd.,North Hollywood,CA,91606,06,06037,Los Angeles County,11,34.18865,-118.397471,31080,"Los Angeles-Long Beach-Anaheim, CA",1,348,"Los Angeles-Long Beach, CA",N,N,0629,06039,06018,2019-2020
060154213487,0601542,Alliance Kory Hunter Middle,06,5886 Compton Ave.,Los Angeles,CA,90001,06,06037,Los Angeles County,21,33.98711,-118.247381,31080,"Los Angeles-Long Beach-Anaheim, CA",1,348,"Los Angeles-Long Beach, CA",N,N,0640,06059,06033,2019-2020
060154312456,0601543,New Designs Charter School-Watts,06,12714 S. Avalon Blvd.,Los Angeles,CA,90061,06,06037,Los Angeles County,21,33.917154,-118.264685,31080,"Los Angeles-Long Beach-Anaheim, CA",1,348,"Los Angeles-Long Beach, CA",N,N,0644,06064,06035,2019-2020
060154412705,0601544,KIPP Comienza Community Prep,06,7300 Roseberry Ave.,Huntington Park,CA,90255,06,06037,Los Angeles County,21,33.97404,-118.232051,31080,"Los Angeles-Long Beach-Anaheim, CA",1,348,"Los Angeles-Long Beach, CA",N,N,0640,06059,06033,2019-2020
060154613685,0601546,Ivy Bound Acad Math Sci and Tech Charter Mid 2,06,20040 Parthenia St.,Northridge,CA,91324,06,06037,Los Angeles County,11,34.227527,-118.569648,31080,"Los Angeles-Long Beach-Anaheim, CA",1,348,"Los Angeles-Long Beach, CA",N,N,0630,06045,06027,2019-2020
060154810840,0601548,New Designs Charter,06,2303 S. Figueroa Way,Los Angeles,CA,90007,06,06037,Los Angeles County,11,34.030995,-118.275174,31080,"Los Angeles-Long Beach-Anaheim, CA",1,348,"Los Angeles-Long Beach, CA",N,N,0637,06059,06030,2019-2020
060155011660,0601550,Los Feliz Charter School for the Arts,06,2709 E. Media Center Dr.,Los Angeles,CA,90065,06,06037,Los Angeles County,11,34.110857,-118.2455,31080,"Los Angeles-Long Beach-Anaheim, CA",1,348,"Los Angeles-Long Beach, CA",N,N,0628,06051,06024,2019-2020
060155313135,0601553,Aspire Centennial College Preparatory Academy,06,2079 Saturn Ave.,Huntington Park,CA,90255,06,06037,Los Angeles County,21,33.97754,-118.234155,31080,"Los Angeles-Long Beach-Anaheim, CA",1,348,"Los Angeles-Long Beach, CA",N,N,0640,06059,06033,2019-2020
060155712077,0601557,Aspire Junior Collegiate Academy,06,6724 S. Alameda St.,Huntington Park,CA,90255,06,06037,Los Angeles County,21,33.978062,-118.23423,31080,"Los Angeles-Long Beach-Anaheim, CA",1,348,"Los Angeles-Long Beach, CA",N,N,0640,06059,06033,2019-2020
060156211906,0601562,Mission View Public,06,26334 Citrus St.,Santa Clarita,CA,91355,06,06037,Los Angeles County,21,34.41583,-118.552781,31080,"Los Angeles-Long Beach-Anaheim, CA",1,348,"Los Angeles-Long Beach, CA",N,N,0625,06038,06021,2019-2020
060156411339,0601564,North Valley Military Institute College Preparatory Academy,06,12105 Allegheny St.,Sun Valley,CA,91352,06,06037,Los Angeles County,11,34.235666,-118.396665,31080,"Los Angeles-Long Beach-Anaheim, CA",1,348,"Los Angeles-Long Beach, CA",N,N,0629,06039,06018,2019-2020
060156510989,0601565,Nova Academy Early College High,06,500 W. Santa Ana Blvd.,Santa Ana,CA,92701,06,06059,Orange County,11,33.747442,-117.872867,31080,"Los Angeles-Long Beach-Anaheim, CA",1,348,"Los Angeles-Long Beach, CA",N,N,0646,06069,06034,2019-2020
060156613838,0601566,Valiant Academy of Los Angeles,06,32248 Crown Valley Rd.,Acton,CA,93510,06,06037,Los Angeles County,42,34.472708,-118.196768,31080,"Los Angeles-Long Beach-Anaheim, CA",1,348,"Los Angeles-Long Beach, CA",N,N,0625,06036,06021,2019-2020
060156812766,0601568,Alliance Ted K. Tajima High,06,1552 W. Rockwood St.,Los Angeles,CA,90026,06,06037,Los Angeles County,11,34.063542,-118.261557,31080,"Los Angeles-Long Beach-Anaheim, CA",1,348,"Los Angeles-Long Beach, CA",N,N,0634,06051,06024,2019-2020
060156914098,0601569,WISH Academy High,06,7400 W. Manchester Ave.,Los Angeles,CA,90045,06,06037,Los Angeles County,11,33.95771,-118.428941,31080,"Los Angeles-Long Beach-Anaheim, CA",1,348,"Los Angeles-Long Beach, CA",N,N,0643,06062,06026,2019-2020
060157111631,0601571,New Village Girls Academy,06,147 N. Occidental Blvd.,Los Angeles,CA,90026,06,06037,Los Angeles County,11,34.07133,-118.279501,31080,"Los Angeles-Long Beach-Anaheim, CA",1,348,"Los Angeles-Long Beach, CA",N,N,0634,06051,06024,2019-2020
060157213099,0601572,Alliance Alice M. Baxter College-Ready High,06,461 W. 9th St.,San Pedro,CA,90731,06,06037,Los Angeles County,11,33.73578,-118.287061,31080,"Los Angeles-Long Beach-Anaheim, CA",1,348,"Los Angeles-Long Beach, CA",N,N,0644,06070,06035,2019-2020
060157307522,0601573,Watts Learning Center,06,310 W. 95th St.,Los Angeles,CA,90003,06,06037,Los Angeles County,11,33.94981,-118.278821,31080,"Los Angeles-Long Beach-Anaheim, CA",1,348,"Los Angeles-Long Beach, CA",N,N,0643,06064,06030,2019-2020
060157514313,0601575,TEACH Prep Mildred S. Cunningham & Edith H. Morris Elem,06,8505 S. W.ern Ave.,Los Angeles,CA,90047,06,06037,Los Angeles County,11,33.96068,-118.309341,31080,"Los Angeles-Long Beach-Anaheim, CA",1,348,"Los Angeles-Long Beach, CA",N,N,0637,06059,06030,2019-2020
060157908070,0601579,Opportunities for Learning - Santa Clarita,06,27616 Newhall Ranch Rd.,Valencia,CA,91355,06,06037,Los Angeles County,21,34.43793,-118.564541,31080,"Los Angeles-Long Beach-Anaheim, CA",1,348,"Los Angeles-Long Beach, CA",N,N,0625,06038,06021,2019-2020
060158010865,0601580,CHAMPS - Charter HS of Arts-Multimedia & Performing,06,6842 Van Nuys Blvd.,Van Nuys,CA,91405,06,06037,Los Angeles County,11,34.19512,-118.447521,31080,"Los Angeles-Long Beach-Anaheim, CA",1,348,"Los Angeles-Long Beach, CA",N,N,0629,06046,06018,2019-2020
060158410837,0601584,PUC Lakeview Charter Academy,06,11465 Kagel Canyon St.,Lake View Terrace,CA,91342,06,06037,Los Angeles County,11,34.280299,-118.381669,31080,"Los Angeles-Long Beach-Anaheim, CA",1,348,"Los Angeles-Long Beach, CA",N,N,0629,06039,06018,2019-2020
060158612641,0601586,Valley Charter Elementary,06,16514 Nordhoff St.,North Hills,CA,91343,06,06037,Los Angeles County,11,34.23471,-118.492151,31080,"Los Angeles-Long Beach-Anaheim, CA",1,348,"Los Angeles-Long Beach, CA",N,N,0629,06046,06018,2019-2020
060158913273,0601589,Alliance College-Ready Middle Academy 8,06,113 S. Rowan Ave.,Los Angeles,CA,90063,06,06037,Los Angeles County,21,34.03546,-118.187311,31080,"Los Angeles-Long Beach-Anaheim, CA",1,348,"Los Angeles-Long Beach, CA",N,N,0640,06051,06024,2019-2020
060159313860,0601593,Clear Passage Educational Center,06,1471 MLK Jr. Ave.,Long Beach,CA,90813,06,06037,Los Angeles County,11,33.78454,-118.180981,31080,"Los Angeles-Long Beach-Anaheim, CA",1,348,"Los Angeles-Long Beach, CA",N,N,0647,06070,06033,2019-2020
060159403333,0601594,Santa Monica Boulevard Community Charter,06,1022 N. Van Ness Ave.,Los Angeles,CA,90038,06,06037,Los Angeles County,11,34.08955,-118.315391,31080,"Los Angeles-Long Beach-Anaheim, CA",1,348,"Los Angeles-Long Beach, CA",N,N,0628,06053,06024,2019-2020
060159602857,0601596,Birmingham Community Charter High,06,17000 Haynes St.,Lake Balboa,CA,91406,06,06037,Los Angeles County,11,34.19025,-118.504351,31080,"Los Angeles-Long Beach-Anaheim, CA",1,348,"Los Angeles-Long Beach, CA",N,N,0630,06046,06027,2019-2020
060159910869,0601599,ISANA Nascent Academy,06,3417 W. Jefferson Blvd.,Los Angeles,CA,90018,06,06037,Los Angeles County,11,34.02587,-118.333431,31080,"Los Angeles-Long Beach-Anaheim, CA",1,348,"Los Angeles-Long Beach, CA",N,N,0637,06054,06030,2019-2020
060160513705,0601605,Family First Charter,06,12500 Ramona Ave.,Hawthorne,CA,90250,06,06037,Los Angeles County,21,33.919095,-118.356642,31080,"Los Angeles-Long Beach-Anaheim, CA",1,348,"Los Angeles-Long Beach, CA",N,N,0643,06062,06035,2019-2020
060161114040,0601611,Orange County Workforce Innovation High,06,505 N. Euclid St.,Anaheim,CA,92801,06,06059,Orange County,11,33.837954,-117.94188,31080,"Los Angeles-Long Beach-Anaheim, CA",1,348,"Los Angeles-Long Beach, CA",N,N,0646,06069,06029,2019-2020
060161214144,0601612,LA's Promise Charter High #1,06,1755 W. 52nd St.,Los Angeles,CA,90062,06,06037,Los Angeles County,11,33.99531,-118.308701,31080,"Los Angeles-Long Beach-Anaheim, CA",1,348,"Los Angeles-Long Beach, CA",N,N,0637,06059,06030,2019-2020
060161313872,0601613,Fenton STEM Acad: Elem Center for Sci Tech Engr and Math,06,8926 Sunland Blvd.,Sun Valley,CA,91352,06,06037,Los Angeles County,11,34.23147,-118.366201,31080,"Los Angeles-Long Beach-Anaheim, CA",1,348,"Los Angeles-Long Beach, CA",N,N,0628,06039,06025,2019-2020
060161711328,0601617,Lennox Mathematics Science and Technology Academy,06,11036 Hawthorne Blvd.,Lennox,CA,90304,06,06037,Los Angeles County,21,33.93531,-118.351941,31080,"Los Angeles-Long Beach-Anaheim, CA",1,348,"Los Angeles-Long Beach, CA",N,N,0643,06062,06035,2019-2020
060162000001,0601620,Aloha Elementary,06,11737 E. 214th St.,Lakewood,CA,90715,06,06037,Los Angeles County,21,33.8356,-118.0832,31080,"Los Angeles-Long Beach-Anaheim, CA",1,348,"Los Angeles-Long Beach, CA",N,N,0638,06063,06032,2019-2020
060162000002,0601620,Artesia High,06,12108 E. Del Amo Blvd.,Lakewood,CA,90715,06,06037,Los Angeles County,21,33.8451,-118.0731,31080,"Los Angeles-Long Beach-Anaheim, CA",1,348,"Los Angeles-Long Beach, CA",N,N,0638,06063,06032,2019-2020
060162000004,0601620,Bragg Elementary,06,11501 Bos St.,Cerritos,CA,90703,06,06037,Los Angeles County,21,33.8556,-118.0891,31080,"Los Angeles-Long Beach-Anaheim, CA",1,348,"Los Angeles-Long Beach, CA",N,N,0638,06058,06032,2019-2020
060162000005,0601620,Burbank (Luther) Elementary,06,17711 Roseton Ave.,Artesia,CA,90701,06,06037,Los Angeles County,21,33.8702,-118.0878,31080,"Los Angeles-Long Beach-Anaheim, CA",1,348,"Los Angeles-Long Beach, CA",N,N,0638,06058,06032,2019-2020
060162000007,0601620,Carmenita Middle,06,13435 E. 166th St.,Cerritos,CA,90703,06,06037,Los Angeles County,21,33.8812,-118.0461,31080,"Los Angeles-Long Beach-Anaheim, CA",1,348,"Los Angeles-Long Beach, CA",N,N,0638,06058,06032,2019-2020
060162000008,0601620,Carver (Charles J.) Elementary,06,19200 E. Ely St.,Cerritos,CA,90703,06,06037,Los Angeles County,21,33.8561,-118.0686,31080,"Los Angeles-Long Beach-Anaheim, CA",1,348,"Los Angeles-Long Beach, CA",N,N,0638,06058,06032,2019-2020
060162000009,0601620,Cerritos Elementary,06,13600 E. 183rd St.,Cerritos,CA,90703,06,06037,Los Angeles County,21,33.8656,-118.0411,31080,"Los Angeles-Long Beach-Anaheim, CA",1,348,"Los Angeles-Long Beach, CA",N,N,0638,06058,06032,2019-2020
060162000010,0601620,Cerritos High,06,12500 E. 183rd St.,Cerritos,CA,90703,06,06037,Los Angeles County,21,33.865,-118.0651,31080,"Los Angeles-Long Beach-Anaheim, CA",1,348,"Los Angeles-Long Beach, CA",N,N,0638,06058,06032,2019-2020
060162000011,0601620,Elliott (William F) Elementary,06,18415 Cortner Ave.,Artesia,CA,90703,06,06037,Los Angeles County,21,33.8649,-118.0704,31080,"Los Angeles-Long Beach-Anaheim, CA",1,348,"Los Angeles-Long Beach, CA",N,N,0638,06058,06032,2019-2020
060162000012,0601620,Ross (Faye) Middle,06,17707 Elaine Ave.,Artesia,CA,90701,06,06037,Los Angeles County,21,33.8702,-118.0778,31080,"Los Angeles-Long Beach-Anaheim, CA",1,348,"Los Angeles-Long Beach, CA",N,N,0638,06058,06032,2019-2020
060162000013,0601620,Furgeson (Venn W.) Elementary,06,22215 Elaine Ave.,Hawaiian Gardens,CA,90716,06,06037,Los Angeles County,21,33.8263,-118.0766,31080,"Los Angeles-Long Beach-Anaheim, CA",1,348,"Los Angeles-Long Beach, CA",N,N,0638,06063,06032,2019-2020
060162000014,0601620,Gahr (Richard) High,06,11111 Artesia Blvd.,Cerritos,CA,90703,06,06037,Los Angeles County,21,33.8736,-118.0944,31080,"Los Angeles-Long Beach-Anaheim, CA",1,348,"Los Angeles-Long Beach, CA",N,N,0638,06058,06032,2019-2020
060162000015,0601620,Gonsalves (Joe A.) Elementary,06,13650 Park St.,Cerritos,CA,90703,06,06037,Los Angeles County,21,33.8782,-118.0415,31080,"Los Angeles-Long Beach-Anaheim, CA",1,348,"Los Angeles-Long Beach, CA",N,N,0638,06058,06032,2019-2020
060162000016,0601620,Haskell (Pliny Fisk) Middle,06,11525 Del Amo Blvd.,Cerritos,CA,90703,06,06037,Los Angeles County,21,33.8465,-118.088,31080,"Los Angeles-Long Beach-Anaheim, CA",1,348,"Los Angeles-Long Beach, CA",N,N,0638,06058,06032,2019-2020
060162000017,0601620,Hawaiian Elementary,06,12350 E. 226th St.,Hawaiian Gardens,CA,90716,06,06037,Los Angeles County,21,33.8235,-118.0669,31080,"Los Angeles-Long Beach-Anaheim, CA",1,348,"Los Angeles-Long Beach, CA",N,N,0638,06063,06032,2019-2020
060162000018,0601620,Juarez (Benito) Elementary,06,11939 Aclare St.,Cerritos,CA,90703,06,06037,Los Angeles County,21,33.875,-118.0779,31080,"Los Angeles-Long Beach-Anaheim, CA",1,348,"Los Angeles-Long Beach, CA",N,N,0638,06058,06032,2019-2020
060162000019,0601620,Kennedy (John F.) Elementary,06,17500 Belshire Ave.,Artesia,CA,90701,06,06037,Los Angeles County,21,33.8721,-118.0703,31080,"Los Angeles-Long Beach-Anaheim, CA",1,348,"Los Angeles-Long Beach, CA",N,N,0638,06058,06032,2019-2020
060162000020,0601620,Fedde (Pharis F.) Middle,06,21409 S. Elaine Ave.,Hawaiian Gardens,CA,90716,06,06037,Los Angeles County,21,33.8347,-118.0774,31080,"Los Angeles-Long Beach-Anaheim, CA",1,348,"Los Angeles-Long Beach, CA",N,N,0638,06063,06032,2019-2020
060162000021,0601620,Leal (Frank C.) Elementary,06,12920 Droxford St.,Cerritos,CA,90703,06,06037,Los Angeles County,21,33.8608,-118.056,31080,"Los Angeles-Long Beach-Anaheim, CA",1,348,"Los Angeles-Long Beach, CA",N,N,0638,06058,06032,2019-2020
060162000022,0601620,Melbourne (Ella P.) Elementary,06,21314 Claretta Ave.,Lakewood,CA,90715,06,06037,Los Angeles County,21,33.8361,-118.067,31080,"Los Angeles-Long Beach-Anaheim, CA",1,348,"Los Angeles-Long Beach, CA",N,N,0638,06063,06032,2019-2020
060162000023,0601620,Niemes (John H.) Elementary,06,16715 Jersey Ave.,Artesia,CA,90701,06,06037,Los Angeles County,21,33.8791,-118.0864,31080,"Los Angeles-Long Beach-Anaheim, CA",1,348,"Los Angeles-Long Beach, CA",N,N,0638,06058,06032,2019-2020
060162000024,0601620,Nixon (Patricia) Elementary,06,19600 Jacob Ave.,Cerritos,CA,90703,06,06037,Los Angeles County,21,33.8523,-118.076,31080,"Los Angeles-Long Beach-Anaheim, CA",1,348,"Los Angeles-Long Beach, CA",N,N,0638,06058,06032,2019-2020
060162000025,0601620,Palms Elementary,06,12445 E. 207th St.,Lakewood,CA,90715,06,06037,Los Angeles County,21,33.8432,-118.067,31080,"Los Angeles-Long Beach-Anaheim, CA",1,348,"Los Angeles-Long Beach, CA",N,N,0638,06063,06032,2019-2020
060162000026,0601620,Stowers(Cecil B.) Elementary,06,13350 Beach St.,Cerritos,CA,90703,06,06037,Los Angeles County,21,33.8757,-118.0478,31080,"Los Angeles-Long Beach-Anaheim, CA",1,348,"Los Angeles-Long Beach, CA",N,N,0638,06058,06032,2019-2020
060162000027,0601620,Tetzlaff (Martin B.) Middle,06,12351 E. Del Amo Blvd.,Cerritos,CA,90703,06,06037,Los Angeles County,21,33.8478,-118.0682,31080,"Los Angeles-Long Beach-Anaheim, CA",1,348,"Los Angeles-Long Beach, CA",N,N,0638,06058,06032,2019-2020
060162000028,0601620,Tracy (Wilbur) High (Continuation),06,12222 Cuesta Dr.,Cerritos,CA,90703,06,06037,Los Angeles County,21,33.8784,-118.0716,31080,"Los Angeles-Long Beach-Anaheim, CA",1,348,"Los Angeles-Long Beach, CA",N,N,0638,06058,06032,2019-2020
060162000029,0601620,Whitney (Gretchen) High,06,16800 Shoemaker Ave.,Cerritos,CA,90703,06,06037,Los Angeles County,21,33.878,-118.0544,31080,"Los Angeles-Long Beach-Anaheim, CA",1,348,"Los Angeles-Long Beach, CA",N,N,0638,06058,06032,2019-2020
060162000030,0601620,Willow Elementary,06,11733 E. 205th St.,Lakewood,CA,90715,06,06037,Los Angeles County,21,33.8445,-118.0825,31080,"Los Angeles-Long Beach-Anaheim, CA",1,348,"Los Angeles-Long Beach, CA",N,N,0638,06063,06032,2019-2020
060162000031,0601620,Wittmann (Helen) Elementary,06,16801 Yvette Ave.,Cerritos,CA,90703,06,06037,Los Angeles County,21,33.8778,-118.058,31080,"Los Angeles-Long Beach-Anaheim, CA",1,348,"Los Angeles-Long Beach, CA",N,N,0638,06058,06032,2019-2020
060162010232,0601620,ABC Secondary (Alternative),06,16534 S. Carmenita Rd.,Cerritos,CA,90703,06,06037,Los Angeles County,21,33.881,-118.0455,31080,"Los Angeles-Long Beach-Anaheim, CA",1,348,"Los Angeles-Long Beach, CA",N,N,0638,06058,06032,2019-2020
060162412935,0601624,Animo Legacy Charter Middle,06,12226 S. W.ern Ave.,Los Angeles,CA,90047,06,06037,Los Angeles County,21,33.921033,-118.308616,31080,"Los Angeles-Long Beach-Anaheim, CA",1,348,"Los Angeles-Long Beach, CA",N,N,0643,06062,06035,2019-2020
060163012695,0601630,Magnolia Science Academy Bell,06,6411 Orchard Ave.,Bell,CA,90201,06,06037,Los Angeles County,21,33.97895,-118.199591,31080,"Los Angeles-Long Beach-Anaheim, CA",1,348,"Los Angeles-Long Beach, CA",N,N,0640,06063,06033,2019-2020
060163313704,0601633,College Bridge Academy,06,1827 E. 103rd St.,Los Angeles,CA,90007,06,06037,Los Angeles County,11,33.943484,-118.239873,31080,"Los Angeles-Long Beach-Anaheim, CA",1,348,"Los Angeles-Long Beach, CA",N,N,0644,06064,06035,2019-2020
060164913787,0601649,Animo Mae Jemison Charter Middle,06,12700 Avalon Blvd.,Los Angeles,CA,90061,06,06037,Los Angeles County,21,33.91754,-118.264041,31080,"Los Angeles-Long Beach-Anaheim, CA",1,348,"Los Angeles-Long Beach, CA",N,N,0644,06064,06035,2019-2020
060165113967,0601651,California Collegiate Charter,06,5101 S. W.ern Ave.,Los Angeles,CA,90062,06,06037,Los Angeles County,11,33.996712,-118.30947,31080,"Los Angeles-Long Beach-Anaheim, CA",1,348,"Los Angeles-Long Beach, CA",N,N,0637,06054,06030,2019-2020
060165214109,0601652,Gabriella Charter 2,06,3736 Trinity St.,Los Angeles,CA,90011,06,06037,Los Angeles County,11,34.01295,-118.268501,31080,"Los Angeles-Long Beach-Anaheim, CA",1,348,"Los Angeles-Long Beach, CA",N,N,0640,06059,06030,2019-2020
060165413597,0601654,Alliance Virgil Roberts Leadership Academy,06,2941 W. 70th St.,Los Angeles,CA,90043,06,06037,Los Angeles County,11,33.97707,-118.325721,31080,"Los Angeles-Long Beach-Anaheim, CA",1,348,"Los Angeles-Long Beach, CA",N,N,0637,06062,06030,2019-2020
060165711636,0601657,Animo Jackie Robinson High,06,3500 S. Hill St.,Los Angeles,CA,90007,06,06037,Los Angeles County,11,34.017318,-118.275298,31080,"Los Angeles-Long Beach-Anaheim, CA",1,348,"Los Angeles-Long Beach, CA",N,N,0637,06059,06030,2019-2020
060165812905,0601658,Animo Ellen Ochoa Charter Middle,06,4360 Dozier St.,Los Angeles,CA,90022,06,06037,Los Angeles County,21,34.041202,-118.17166,31080,"Los Angeles-Long Beach-Anaheim, CA",1,348,"Los Angeles-Long Beach, CA",N,N,0640,06051,06024,2019-2020
060165913536,0601659,Optimist Charter,06,6957 N. Figueroa St.,Los Angeles,CA,90042,06,06037,Los Angeles County,11,34.12833,-118.188481,31080,"Los Angeles-Long Beach-Anaheim, CA",1,348,"Los Angeles-Long Beach, CA",N,N,0634,06051,06024,2019-2020
060166610871,0601666,Alliance Collins Family College-Ready High,06,2071 Saturn Ave.,Huntington Park,CA,90255,06,06037,Los Angeles County,21,33.97742,-118.234121,31080,"Los Angeles-Long Beach-Anaheim, CA",1,348,"Los Angeles-Long Beach, CA",N,N,0640,06059,06033,2019-2020
060166712634,0601667,Aspire Pacific Academy,06,2565 58th St.,Huntington Park,CA,90255,06,06037,Los Angeles County,21,33.990468,-118.225848,31080,"Los Angeles-Long Beach-Anaheim, CA",1,348,"Los Angeles-Long Beach, CA",N,N,0640,06053,06033,2019-2020
060166813899,0601668,The City,06,5753 Obama Blvd.,Los Angeles,CA,90016,06,06037,Los Angeles County,11,34.022,-118.371282,31080,"Los Angeles-Long Beach-Anaheim, CA",1,348,"Los Angeles-Long Beach, CA",N,N,0637,06054,06030,2019-2020
060167214001,0601672,Oxford Preparatory Academy - Saddleback Valley,06,22882 Loumont Dr.,Lake Forest,CA,92630,06,06059,Orange County,21,33.62878,-117.700481,31080,"Los Angeles-Long Beach-Anaheim, CA",1,348,"Los Angeles-Long Beach, CA",N,N,0645,06068,06037,2019-2020
060167812360,0601678,Magnolia Science Academy 4,06,11330 W. Graham Pl. B-9,Los Angeles,CA,90064,06,06037,Los Angeles County,11,34.029926,-118.434795,31080,"Los Angeles-Long Beach-Anaheim, CA",1,348,"Los Angeles-Long Beach, CA",N,N,0637,06054,06030,2019-2020
060167912510,0601679,Valor Academy Middle,06,9034 Burnet Ave.,North Hills,CA,91343,06,06037,Los Angeles County,11,34.23468,-118.462641,31080,"Los Angeles-Long Beach-Anaheim, CA",1,348,"Los Angeles-Long Beach, CA",N,N,0629,06046,06018,2019-2020
060168113829,0601681,SIATech Academy South,06,501 S. Boyle Ave.,Los Angeles,CA,90033,06,06037,Los Angeles County,11,34.04137,-118.220201,31080,"Los Angeles-Long Beach-Anaheim, CA",1,348,"Los Angeles-Long Beach, CA",N,N,0634,06053,06024,2019-2020
060168312119,0601683,Lifeline Education Charter,06,225 S. Santa Fe Ave.,Compton,CA,90221,06,06037,Los Angeles County,21,33.89463,-118.216071,31080,"Los Angeles-Long Beach-Anaheim, CA",1,348,"Los Angeles-Long Beach, CA",N,N,0644,06064,06035,2019-2020
060168410829,0601684,High Tech LA,06,17111 Victory Blvd.,Lake Balboa,CA,91406,06,06037,Los Angeles County,11,34.187261,-118.506195,31080,"Los Angeles-Long Beach-Anaheim, CA",1,348,"Los Angeles-Long Beach, CA",N,N,0630,06046,06027,2019-2020
060169012342,0601690,Alliance Leichtman-Levine Family Foundation Env Sci High,06,2930 Fletcher Dr.,Los Angeles,CA,90065,06,06037,Los Angeles County,11,34.11359,-118.246471,31080,"Los Angeles-Long Beach-Anaheim, CA",1,348,"Los Angeles-Long Beach, CA",N,N,0634,06051,06024,2019-2020
060169311308,0601693,KIPP Academy of Opportunity,06,8500 S. Figueroa St.,Los Angeles,CA,90003,06,06037,Los Angeles County,11,33.96106,-118.282271,31080,"Los Angeles-Long Beach-Anaheim, CA",1,348,"Los Angeles-Long Beach, CA",N,N,0643,06059,06030,2019-2020
060169411634,0601694,Alliance Jack H. Skirball Middle,06,603 E. 115th St.,Los Angeles,CA,90059,06,06037,Los Angeles County,11,33.930271,-118.26495,31080,"Los Angeles-Long Beach-Anaheim, CA",1,348,"Los Angeles-Long Beach, CA",N,N,0643,06064,06030,2019-2020
060169507533,0601695,San Jose Charter Academy,06,2021 W. Alwood St.,West Covina,CA,91790,06,06037,Los Angeles County,21,34.06251,-117.959591,31080,"Los Angeles-Long Beach-Anaheim, CA",1,348,"Los Angeles-Long Beach, CA",N,N,0632,06048,06022,2019-2020
060169614242,0601696,KIPP Compton Community,06,13305 S. San Pedro St.,Los Angeles,CA,90061,06,06037,Los Angeles County,21,33.911106,-118.271082,31080,"Los Angeles-Long Beach-Anaheim, CA",1,348,"Los Angeles-Long Beach, CA",N,N,0644,06064,06035,2019-2020
060169912491,0601699,Watts Learning Center Charter Middle,06,8800 S. San Pedro St.,Los Angeles,CA,90003,06,06037,Los Angeles County,11,33.95715,-118.268761,31080,"Los Angeles-Long Beach-Anaheim, CA",1,348,"Los Angeles-Long Beach, CA",N,N,0643,06059,06030,2019-2020
060170211931,0601702,Global Education Academy,06,4141 S. Figueroa St.,Los Angeles,CA,90037,06,06037,Los Angeles County,11,34.00838,-118.282971,31080,"Los Angeles-Long Beach-Anaheim, CA",1,348,"Los Angeles-Long Beach, CA",N,N,0637,06059,06030,2019-2020
060170610524,0601706,Magnolia Science Academy,06,18238 Sherman Way,Reseda,CA,91335,06,06037,Los Angeles County,11,34.20072,-118.530521,31080,"Los Angeles-Long Beach-Anaheim, CA",1,348,"Los Angeles-Long Beach, CA",N,N,0630,06045,06027,2019-2020
060170712924,0601707,Alliance Margaret M. Bloomfield Technology Academy High,06,7907 Santa Fe Ave.,Huntington Park,CA,90255,06,06037,Los Angeles County,21,33.96696,-118.230601,31080,"Los Angeles-Long Beach-Anaheim, CA",1,348,"Los Angeles-Long Beach, CA",N,N,0644,06059,06033,2019-2020
060170812673,0601708,Environmental Charter Middle,06,812 W. 165th Pl.,Gardena,CA,90247,06,06037,Los Angeles County,11,33.88044,-118.289571,31080,"Los Angeles-Long Beach-Anaheim, CA",1,348,"Los Angeles-Long Beach, CA",N,N,0643,06064,06035,2019-2020
060171310897,0601713,Los Angeles College Prep Academy,06,625 Coleman Ave.,Los Angeles,CA,90042,06,06037,Los Angeles County,11,34.102605,-118.183261,31080,"Los Angeles-Long Beach-Anaheim, CA",1,348,"Los Angeles-Long Beach, CA",N,N,0634,06051,06024,2019-2020
060172012903,0601720,Animo College Preparatory Academy,06,2265 E. 103rd St.,Los Angeles,CA,90002,06,06037,Los Angeles County,11,33.9445,-118.231131,31080,"Los Angeles-Long Beach-Anaheim, CA",1,348,"Los Angeles-Long Beach, CA",N,N,0644,06064,06035,2019-2020
060172114422,0601721,Rise Kohyang Elementary,06,600 S. La Fayette Park Pl.,Los Angeles,CA,90057,06,06037,Los Angeles County,11,34.062468,-118.282165,31080,"Los Angeles-Long Beach-Anaheim, CA",1,348,"Los Angeles-Long Beach, CA",N,N,0634,06053,06024,2019-2020
060172312852,0601723,Rise Kohyang Middle,06,3020 Wilshire Blvd. 2nd Fl.,Los Angeles,CA,90010,06,06037,Los Angeles County,11,34.061193,-118.287378,31080,"Los Angeles-Long Beach-Anaheim, CA",1,348,"Los Angeles-Long Beach, CA",N,N,0634,06053,06024,2019-2020
060172512467,0601725,ICEF Inglewood Elementary Charter Academy,06,434 S. Grevillea Ave.,Inglewood,CA,90301,06,06037,Los Angeles County,21,33.95812,-118.354531,31080,"Los Angeles-Long Beach-Anaheim, CA",1,348,"Los Angeles-Long Beach, CA",N,N,0643,06062,06035,2019-2020
060173111358,0601731,ICEF View Park Preparatory High,06,5701 S. Crenshaw Blvd.,Los Angeles,CA,90043,06,06037,Los Angeles County,11,33.990329,-118.33128,31080,"Los Angeles-Long Beach-Anaheim, CA",1,348,"Los Angeles-Long Beach, CA",N,N,0637,06054,06030,2019-2020
060173203245,0601732,Accelerated,06,4000 S. Main St.,Los Angeles,CA,90037,06,06037,Los Angeles County,11,34.010811,-118.273723,31080,"Los Angeles-Long Beach-Anaheim, CA",1,348,"Los Angeles-Long Beach, CA",N,N,0640,06059,06030,2019-2020
060173308715,0601733,Opportunities for Learning - Baldwin Park,06,12731 Ramona Blvd. Ste. 201,Irwindale,CA,91706,06,06037,Los Angeles County,21,34.079093,-117.994061,31080,"Los Angeles-Long Beach-Anaheim, CA",1,348,"Los Angeles-Long Beach, CA",N,N,0632,06048,06022,2019-2020
060173514296,0601735,Los Feliz Charter Middle School for the Arts,06,2709 Media Dr.,Los Angeles,CA,90065,06,06037,Los Angeles County,11,34.110902,-118.245484,31080,"Los Angeles-Long Beach-Anaheim, CA",1,348,"Los Angeles-Long Beach, CA",N,N,0628,06051,06024,2019-2020
060173613765,0601736,Village Charter Academy,06,7357 Jordan Ave.,Canoga Park,CA,91303,06,06037,Los Angeles County,11,34.20446,-118.603271,31080,"Los Angeles-Long Beach-Anaheim, CA",1,348,"Los Angeles-Long Beach, CA",N,N,0630,06045,06027,2019-2020
060174112738,0601741,Camino Nuevo Charter Academy #2,06,3400 W. 3rd St.,Los Angeles,CA,90020,06,06037,Los Angeles County,11,34.06855,-118.289063,31080,"Los Angeles-Long Beach-Anaheim, CA",1,348,"Los Angeles-Long Beach, CA",N,N,0634,06053,06024,2019-2020
060174212437,0601742,Ararat Charter,06,6555 Sylmar Ave.,Van Nuys,CA,91401,06,06037,Los Angeles County,11,34.18997,-118.447011,31080,"Los Angeles-Long Beach-Anaheim, CA",1,348,"Los Angeles-Long Beach, CA",N,N,0629,06046,06018,2019-2020
060174614230,0601746,Mission Academy,06,32248 Crown Valley Rd. Rm.114,Acton,CA,93510,06,06037,Los Angeles County,42,34.472708,-118.196768,31080,"Los Angeles-Long Beach-Anaheim, CA",1,348,"Los Angeles-Long Beach, CA",N,N,0625,06036,06021,2019-2020
060175013749,0601750,Community Preparatory Academy,06,7019 S. Van Ness Ave.,Los Angeles,CA,90044,06,06037,Los Angeles County,11,33.975676,-118.318058,31080,"Los Angeles-Long Beach-Anaheim, CA",1,348,"Los Angeles-Long Beach, CA",N,N,0637,06062,06030,2019-2020
060175414060,0601754,Scholarship Prep,06,1010 W. 17th St.,Santa Ana,CA,92706,06,06059,Orange County,11,33.759245,-117.877982,31080,"Los Angeles-Long Beach-Anaheim, CA",1,348,"Los Angeles-Long Beach, CA",N,N,0646,06069,06034,2019-2020
060175714337,0601757,National Univ Acad HomeSch/Independent Study Orange Co,06,27192 Jeronimo Rd.,Mission Viejo,CA,92692,06,06059,Orange County,21,33.607101,-117.656291,31080,"Los Angeles-Long Beach-Anaheim, CA",1,348,"Los Angeles-Long Beach, CA",N,N,0645,06073,06036,2019-2020
060175808755,0601758,El Sol Santa Ana Science and Arts Academy,06,328 W. Halesworth St.,Santa Ana,CA,92701,06,06059,Orange County,11,33.753822,-117.87007,31080,"Los Angeles-Long Beach-Anaheim, CA",1,348,"Los Angeles-Long Beach, CA",N,N,0646,06069,06034,2019-2020
060176014372,0601760,Vista Condor Global Academy,06,2519 W. Fifth St.,Santa Ana,CA,92703,06,06059,Orange County,11,33.74934,-117.902941,31080,"Los Angeles-Long Beach-Anaheim, CA",1,348,"Los Angeles-Long Beach, CA",N,N,0646,06069,06034,2019-2020
060176112312,0601761,APEX Academy,06,1309 N. Wilton Pl. 3rd Fl.,Los Angeles,CA,90028,06,06037,Los Angeles County,11,34.09506,-118.313921,31080,"Los Angeles-Long Beach-Anaheim, CA",1,348,"Los Angeles-Long Beach, CA",N,N,0628,06043,06024,2019-2020
060176412292,0601764,KIPP Raices Academy,06,668 Atlantic Blvd.,Los Angeles,CA,90022,06,06037,Los Angeles County,21,34.023006,-118.156218,31080,"Los Angeles-Long Beach-Anaheim, CA",1,348,"Los Angeles-Long Beach, CA",N,N,0640,06051,06024,2019-2020
060176611314,0601766,Renaissance Arts Academy,06,2558 N. San Fernando Rd.,Los Angeles,CA,90065,06,06037,Los Angeles County,11,34.10782,-118.241561,31080,"Los Angeles-Long Beach-Anaheim, CA",1,348,"Los Angeles-Long Beach, CA",N,N,0628,06051,06024,2019-2020
060176913642,0601769,City Language Immersion Charter,06,4001 Venice Blvd.,Los Angeles,CA,90019,06,06037,Los Angeles County,11,34.04399,-118.324951,31080,"Los Angeles-Long Beach-Anaheim, CA",1,348,"Los Angeles-Long Beach, CA",N,N,0637,06054,06030,2019-2020
060177712925,0601777,ISANA Achernar Academy,06,310 E. El Segundo Blvd.,Compton,CA,90222,06,06037,Los Angeles County,21,33.915948,-118.222469,31080,"Los Angeles-Long Beach-Anaheim, CA",1,348,"Los Angeles-Long Beach, CA",N,N,0644,06064,06035,2019-2020
060178408714,0601784,Desert Sands Charter,06,44130 20th St. W.,Lancaster,CA,93534,06,06037,Los Angeles County,21,34.68476,-118.164171,31080,"Los Angeles-Long Beach-Anaheim, CA",1,348,"Los Angeles-Long Beach, CA",N,N,0623,06036,06021,2019-2020
060178512816,0601785,PUC Lakeview Charter High,06,13361 Glenoaks Blvd.,Sylmar,CA,91342,06,06037,Los Angeles County,11,34.31412,-118.459871,31080,"Los Angeles-Long Beach-Anaheim, CA",1,348,"Los Angeles-Long Beach, CA",N,N,0629,06039,06018,2019-2020
060178714225,0601787,High Tech LA Middle,06,5435 Vesper Ave. Rm. B50,Van Nuys,CA,91411,06,06037,Los Angeles County,11,34.169428,-118.451326,31080,"Los Angeles-Long Beach-Anaheim, CA",1,348,"Los Angeles-Long Beach, CA",N,N,0630,06046,06018,2019-2020
060178913564,0601789,Valor Academy High,06,9356 Lemona Ave.,North Hills,CA,91343,06,06037,Los Angeles County,11,34.24078,-118.458221,31080,"Los Angeles-Long Beach-Anaheim, CA",1,348,"Los Angeles-Long Beach, CA",N,N,0629,06046,06018,2019-2020
060179113883,0601791,KIPP Ignite Academy,06,9110 S. Central Ave.,Los Angeles,CA,90002,06,06037,Los Angeles County,11,33.9536,-118.256101,31080,"Los Angeles-Long Beach-Anaheim, CA",1,348,"Los Angeles-Long Beach, CA",N,N,0643,06059,06030,2019-2020
060179513316,0601795,Extera Public School No. 2,06,1015 S. Lorena St.,Los Angeles,CA,90023,06,06037,Los Angeles County,11,34.02554,-118.203371,31080,"Los Angeles-Long Beach-Anaheim, CA",1,348,"Los Angeles-Long Beach, CA",N,N,0634,06053,06024,2019-2020
060179712963,0601797,Los Angeles Leadership Primary Academy,06,2670 Griffin Ave.,Los Angeles,CA,90031,06,06037,Los Angeles County,11,34.078576,-118.211498,31080,"Los Angeles-Long Beach-Anaheim, CA",1,348,"Los Angeles-Long Beach, CA",N,N,0634,06051,06024,2019-2020
060179813084,0601798,Math and Science College Preparatory,06,3202 W. Adams Blvd.,Los Angeles,CA,90018,06,06037,Los Angeles County,11,34.032305,-118.319015,31080,"Los Angeles-Long Beach-Anaheim, CA",1,348,"Los Angeles-Long Beach, CA",N,N,0637,06054,06030,2019-2020
060179914104,0601799,Ednovate - Brio College Prep,06,700 Wilshire Blvd. Ste. 400,Los Angeles,CA,90017,06,06037,Los Angeles County,11,34.04867,-118.257531,31080,"Los Angeles-Long Beach-Anaheim, CA",1,348,"Los Angeles-Long Beach, CA",N,N,0634,06053,06030,2019-2020
060180412982,0601804,Extera Public,06,2226 E. Third St.,Los Angeles,CA,90033,06,06037,Los Angeles County,11,34.04272,-118.213251,31080,"Los Angeles-Long Beach-Anaheim, CA",1,348,"Los Angeles-Long Beach, CA",N,N,0634,06053,06024,2019-2020
060180614203,0601806,iLEAD Online,06,3720 Sierra Hwy.,Acton,CA,93510,06,06037,Los Angeles County,41,34.49284,-118.195981,31080,"Los Angeles-Long Beach-Anaheim, CA",1,348,"Los Angeles-Long Beach, CA",N,N,0625,06036,06021,2019-2020
060182110891,0601821,Aspire Antonio Maria Lugo Academy,06,6100 Carmelita Ave.,Huntington Park,CA,90255,06,06037,Los Angeles County,21,33.9842,-118.196601,31080,"Los Angeles-Long Beach-Anaheim, CA",1,348,"Los Angeles-Long Beach, CA",N,N,0640,06053,06033,2019-2020
060182314328,0601823,Gorman Learning Center San Bernardino/Santa Clarita,06,16530 Lost Canyon Rd.,Santa Clarita,CA,91387,06,06037,Los Angeles County,21,34.419,-118.425028,31080,"Los Angeles-Long Beach-Anaheim, CA",1,348,"Los Angeles-Long Beach, CA",N,N,0625,06038,06021,2019-2020
060182513697,0601825,Opportunities for Learning - Duarte,06,806 Hntngtn Dr.,Monrovia,CA,91016,06,06037,Los Angeles County,21,34.139586,-117.98816,31080,"Los Angeles-Long Beach-Anaheim, CA",1,348,"Los Angeles-Long Beach, CA",N,N,0632,06041,06025,2019-2020
060183310890,0601833,PUC CALS Middle School and Early College High,06,7350 N. Figueroa St.,Los Angeles,CA,90041,06,06037,Los Angeles County,11,34.137362,-118.187453,31080,"Los Angeles-Long Beach-Anaheim, CA",1,348,"Los Angeles-Long Beach, CA",N,N,0634,06051,06024,2019-2020
060183513857,0601835,Alliance Marine - Innovation and Technology 6-12 Complex,06,11933 Allegheny St.,Sun Valley,CA,91352,06,06037,Los Angeles County,11,34.2374,-118.393341,31080,"Los Angeles-Long Beach-Anaheim, CA",1,348,"Los Angeles-Long Beach, CA",N,N,0629,06039,06018,2019-2020
060183712915,0601837,Camino Nuevo Charter Academy #4,06,1018 Mohawk St.,Los Angeles,CA,90026,06,06037,Los Angeles County,11,34.07665,-118.265021,31080,"Los Angeles-Long Beach-Anaheim, CA",1,348,"Los Angeles-Long Beach, CA",N,N,0628,06051,06024,2019-2020
060184411208,0601844,New West Charter,06,1905 Armacost Ave.,Los Angeles,CA,90025,06,06037,Los Angeles County,11,34.03561,-118.455371,31080,"Los Angeles-Long Beach-Anaheim, CA",1,348,"Los Angeles-Long Beach, CA",N,N,0637,06050,06026,2019-2020
060184912811,0601849,Crown Preparatory Academy,06,2055 W. 24th St.,Los Angeles,CA,90018,06,06037,Los Angeles County,11,34.03567,-118.311581,31080,"Los Angeles-Long Beach-Anaheim, CA",1,348,"Los Angeles-Long Beach, CA",N,N,0637,06054,06030,2019-2020
060185010864,0601850,Port of Los Angeles High,06,250 W. Fifth St.,San Pedro,CA,90731,06,06037,Los Angeles County,11,33.74057,-118.282651,31080,"Los Angeles-Long Beach-Anaheim, CA",1,348,"Los Angeles-Long Beach, CA",N,N,0644,06070,06035,2019-2020
060185110983,0601851,California Connections Academy Southern California,06,33272 Valle Rd.,San Juan Capistrano,CA,92675,06,06059,Orange County,21,33.47822,-117.671056,31080,"Los Angeles-Long Beach-Anaheim, CA",1,348,"Los Angeles-Long Beach, CA",N,N,0649,06073,06036,2019-2020
060185412022,0601854,Antelope Valley Learning Academy,06,37212 47th St. E.,Palmdale,CA,93550,06,06037,Los Angeles County,21,34.558626,-118.043593,31080,"Los Angeles-Long Beach-Anaheim, CA",1,348,"Los Angeles-Long Beach, CA",N,N,0625,06036,06021,2019-2020
060185711655,0601857,Aspire Ollin University Preparatory Academy,06,2540 E. 58th St.,Huntington Park,CA,90255,06,06037,Los Angeles County,21,33.990014,-118.22635,31080,"Los Angeles-Long Beach-Anaheim, CA",1,348,"Los Angeles-Long Beach, CA",N,N,0640,06053,06033,2019-2020
060185813466,0601858,Ingenium Charter Middle,06,7330 Winnetka Ave.,Winnetka,CA,91306,06,06037,Los Angeles County,11,34.20293,-118.569451,31080,"Los Angeles-Long Beach-Anaheim, CA",1,348,"Los Angeles-Long Beach, CA",N,N,0630,06045,06027,2019-2020
060186312942,0601863,ISANA Cardinal Academy,06,7330 Bakman Ave.,Sun Valley,CA,91352,06,06037,Los Angeles County,11,34.203991,-118.377576,31080,"Los Angeles-Long Beach-Anaheim, CA",1,348,"Los Angeles-Long Beach, CA",N,N,0629,06039,06018,2019-2020
060186413901,0601864,Resolute Academy Charter,06,1265 E. 112th St.,Los Angeles,CA,90059,06,06037,Los Angeles County,11,33.93372,-118.252741,31080,"Los Angeles-Long Beach-Anaheim, CA",1,348,"Los Angeles-Long Beach, CA",N,N,0644,06064,06035,2019-2020
060186512528,0601865,Alliance College-Ready Middle Academy 4,06,9719 S. Main St.,Los Angeles,CA,90003,06,06037,Los Angeles County,11,33.94777,-118.274231,31080,"Los Angeles-Long Beach-Anaheim, CA",1,348,"Los Angeles-Long Beach, CA",N,N,0643,06064,06030,2019-2020
060186612324,0601866,New Los Angeles Charter,06,1919 S. Burnside Ave.,Los Angeles,CA,90016,06,06037,Los Angeles County,11,34.04061,-118.357911,31080,"Los Angeles-Long Beach-Anaheim, CA",1,348,"Los Angeles-Long Beach, CA",N,N,0637,06054,06030,2019-2020
060186712883,0601867,Synergy Quantum Academy,06,300 E. 53rd St.,Los Angeles,CA,90011,06,06037,Los Angeles County,11,33.994066,-118.267978,31080,"Los Angeles-Long Beach-Anaheim, CA",1,348,"Los Angeles-Long Beach, CA",N,N,0640,06059,06030,2019-2020
060186912366,0601869,Learning Works,06,90 N. Daisy Ave.,Pasadena,CA,91107,06,06037,Los Angeles County,12,34.147588,-118.092653,31080,"Los Angeles-Long Beach-Anaheim, CA",1,348,"Los Angeles-Long Beach, CA",N,N,0627,06041,06025,2019-2020
060187112776,0601871,Vista Charter Middle,06,2900 W. Temple St.,Los Angeles,CA,90026,06,06037,Los Angeles County,11,34.07386,-118.278721,31080,"Los Angeles-Long Beach-Anaheim, CA",1,348,"Los Angeles-Long Beach, CA",N,N,0634,06051,06024,2019-2020
060187313673,0601873,The Education Corps,06,3635 Atlantic Ave.,Long Beach,CA,90807,06,06037,Los Angeles County,11,33.82337,-118.185391,31080,"Los Angeles-Long Beach-Anaheim, CA",1,348,"Los Angeles-Long Beach, CA",N,N,0647,06070,06033,2019-2020
060188108030,0601881,ICEF View Park Preparatory Elementary,06,5311 S. Crenshaw Blvd.,Los Angeles,CA,90043,06,06037,Los Angeles County,11,33.994506,-118.331256,31080,"Los Angeles-Long Beach-Anaheim, CA",1,348,"Los Angeles-Long Beach, CA",N,N,0637,06054,06030,2019-2020
060188312536,0601883,Endeavor College Preparatory Charter,06,1263 S. Soto St.,Los Angeles,CA,90023,06,06037,Los Angeles County,11,34.026867,-118.220003,31080,"Los Angeles-Long Beach-Anaheim, CA",1,348,"Los Angeles-Long Beach, CA",N,N,0634,06053,06024,2019-2020
060188512347,0601885,Magnolia Science Academy 5,06,18230 Kittridge St.,Reseda,CA,91335,06,06037,Los Angeles County,11,34.18869,-118.529261,31080,"Los Angeles-Long Beach-Anaheim, CA",1,348,"Los Angeles-Long Beach, CA",N,N,0630,06045,06027,2019-2020
060188911361,0601889,Stella Middle Charter Academy,06,4120 11th Ave.,Los Angeles,CA,90008,06,06037,Los Angeles County,11,34.009202,-118.329147,31080,"Los Angeles-Long Beach-Anaheim, CA",1,348,"Los Angeles-Long Beach, CA",N,N,0637,06054,06030,2019-2020
060189404450,0601894,Santiago Middle,06,515 N. Rancho Santiago Blvd.,Orange,CA,92869,06,06059,Orange County,12,33.79571,-117.798841,31080,"Los Angeles-Long Beach-Anaheim, CA",1,348,"Los Angeles-Long Beach, CA",N,N,0645,06068,06037,2019-2020
060189803426,0601898,Vaughn Next Century Learning Center,06,13330 Vaughn St.,San Fernando,CA,91340,06,06037,Los Angeles County,11,34.28004,-118.422781,31080,"Los Angeles-Long Beach-Anaheim, CA",1,348,"Los Angeles-Long Beach, CA",N,N,0629,06039,06018,2019-2020
060189911635,0601899,Animo Ralph Bunche Charter High,06,1655 E. 27th St.,Los Angeles,CA,90011,06,06037,Los Angeles County,11,34.0127,-118.2439,31080,"Los Angeles-Long Beach-Anaheim, CA",1,348,"Los Angeles-Long Beach, CA",N,N,0640,06059,06033,2019-2020
060190012378,0601900,Alliance Piera Barbaglia Shaheen Health Services Academy,06,8515 Kansas Ave.,Los Angeles,CA,90044,06,06037,Los Angeles County,11,33.960292,-118.294314,31080,"Los Angeles-Long Beach-Anaheim, CA",1,348,"Los Angeles-Long Beach, CA",N,N,0637,06059,06030,2019-2020
060190202977,0601902,El Camino Real Charter High,06,5440 Valley Cir. Blvd.,Woodland Hills,CA,91367,06,06037,Los Angeles County,11,34.17074,-118.642661,31080,"Los Angeles-Long Beach-Anaheim, CA",1,348,"Los Angeles-Long Beach, CA",N,N,0630,06045,06027,2019-2020
060190410870,0601904,Larchmont Charter,06,1265 N. Fairfax Ave.,West Hollywood,CA,90046,06,06037,Los Angeles County,21,34.09355,-118.361991,31080,"Los Angeles-Long Beach-Anaheim, CA",1,348,"Los Angeles-Long Beach, CA",N,N,0628,06050,06026,2019-2020
060190510835,0601905,PUC Milagro Charter,06,1855 N. Main St.,Los Angeles,CA,90031,06,06037,Los Angeles County,11,34.06661,-118.219813,31080,"Los Angeles-Long Beach-Anaheim, CA",1,348,"Los Angeles-Long Beach, CA",N,N,0634,06051,06024,2019-2020
060190710522,0601907,Downtown Value,06,950 W. Washington Blvd.,Los Angeles,CA,90015,06,06037,Los Angeles County,11,34.0373,-118.279431,31080,"Los Angeles-Long Beach-Anaheim, CA",1,348,"Los Angeles-Long Beach, CA",N,N,0637,06059,06030,2019-2020
060191414083,0601914,California School of the Arts - San Gabriel Valley,06,1401 Highland Ave.,Duarte,CA,91010,06,06037,Los Angeles County,21,34.1369,-117.968981,31080,"Los Angeles-Long Beach-Anaheim, CA",1,348,"Los Angeles-Long Beach, CA",N,N,0632,06048,06025,2019-2020
060191508012,0601915,Odyssey Charter,06,725 W. Altadena Dr.,Altadena,CA,91001,06,06037,Los Angeles County,12,34.199331,-118.161272,31080,"Los Angeles-Long Beach-Anaheim, CA",1,348,"Los Angeles-Long Beach, CA",N,N,0627,06041,06025,2019-2020
060191710896,0601917,Our Community Charter,06,10045 Jumilla Ave.,Chatsworth,CA,91311,06,06037,Los Angeles County,11,34.253273,-118.563681,31080,"Los Angeles-Long Beach-Anaheim, CA",1,348,"Los Angeles-Long Beach, CA",N,N,0630,06045,06027,2019-2020
060191811954,0601918,ICEF Vista Middle Academy,06,4471 Inglewood Blvd.,Los Angeles,CA,90066,06,06037,Los Angeles County,11,33.9946,-118.418951,31080,"Los Angeles-Long Beach-Anaheim, CA",1,348,"Los Angeles-Long Beach, CA",N,N,0637,06062,06026,2019-2020
060192014108,0601920,KIPP Corazon Academy,06,9325 Long Beach Blvd.,South Gate,CA,90280,06,06037,Los Angeles County,21,33.95093,-118.218281,31080,"Los Angeles-Long Beach-Anaheim, CA",1,348,"Los Angeles-Long Beach, CA",N,N,0644,06063,06033,2019-2020
060192311333,0601923,N.E.W. Academy of Science and Arts,06,379 S. Loma Ave.,Los Angeles,CA,90017,06,06037,Los Angeles County,11,34.05906,-118.2667,31080,"Los Angeles-Long Beach-Anaheim, CA",1,348,"Los Angeles-Long Beach, CA",N,N,0634,06053,06024,2019-2020
060192512271,0601925,Anahuacalmecac International Univ Prep of N. America,06,4736 Hntngtn Dr. S.,Los Angeles,CA,90032,06,06037,Los Angeles County,11,34.085122,-118.181578,31080,"Los Angeles-Long Beach-Anaheim, CA",1,348,"Los Angeles-Long Beach, CA",N,N,0634,06051,06024,2019-2020
060192611633,0601926,Alliance Dr. Olga Mohan High,06,644 W. 17th St.,Los Angeles,CA,90015,06,06037,Los Angeles County,11,34.03678,-118.272331,31080,"Los Angeles-Long Beach-Anaheim, CA",1,348,"Los Angeles-Long Beach, CA",N,N,0637,06059,06030,2019-2020
060193410867,0601934,Alliance Judy Ivie Burton Technology Academy High,06,10101 S. BRd.way,Los Angeles,CA,90003,06,06037,Los Angeles County,11,33.944161,-118.278691,31080,"Los Angeles-Long Beach-Anaheim, CA",1,348,"Los Angeles-Long Beach, CA",N,N,0643,06064,06030,2019-2020
060193914061,0601939,Arts in Action Community Middle,06,1241 S. Soto St. Ste. 212,Los Angeles,CA,90023,06,06037,Los Angeles County,11,34.02707,-118.219931,31080,"Los Angeles-Long Beach-Anaheim, CA",1,348,"Los Angeles-Long Beach, CA",N,N,0634,06053,06024,2019-2020
060194413802,0601944,Equitas Academy #3 Charter,06,1050 Beacon Ave.,Los Angeles,CA,90015,06,06037,Los Angeles County,11,34.048425,-118.275853,31080,"Los Angeles-Long Beach-Anaheim, CA",1,348,"Los Angeles-Long Beach, CA",N,N,0634,06053,06024,2019-2020
060194513029,0601945,Palmdale Aerospace Academy,06,3300 E. Palmdale Blvd.,Palmdale,CA,93550,06,06037,Los Angeles County,21,34.579378,-118.068604,31080,"Los Angeles-Long Beach-Anaheim, CA",1,348,"Los Angeles-Long Beach, CA",N,N,0625,06036,06021,2019-2020
060194613974,0601946,Rise Kohyang High,06,600 S. Lafayette Park Pl.,Los Angeles,CA,90057,06,06037,Los Angeles County,11,34.062424,-118.282196,31080,"Los Angeles-Long Beach-Anaheim, CA",1,348,"Los Angeles-Long Beach, CA",N,N,0634,06053,06024,2019-2020
060194714042,0601947,Empower Generations,06,43301 Division St. Ste. 305,Lancaster,CA,93535,06,06037,Los Angeles County,21,34.66953,-118.130871,31080,"Los Angeles-Long Beach-Anaheim, CA",1,348,"Los Angeles-Long Beach, CA",N,N,0625,06036,06021,2019-2020
060194813858,0601948,GOALS Academy,06,412 W. Carl Karcher Way,Anaheim,CA,92801,06,06059,Orange County,11,33.850165,-117.923254,31080,"Los Angeles-Long Beach-Anaheim, CA",1,348,"Los Angeles-Long Beach, CA",N,N,0646,06069,06029,2019-2020
060195211336,0601952,Today's Fresh Start-Compton,06,4476 Crenshaw Blvd.,Los Angeles,CA,90043,06,06037,Los Angeles County,11,34.00285,-118.330201,31080,"Los Angeles-Long Beach-Anaheim, CA",1,348,"Los Angeles-Long Beach, CA",N,N,0637,06054,06030,2019-2020
060195314248,0601953,Valley International Preparatory High,06,10027 Lurline Ave.,Chatsworth,CA,91311,06,06037,Los Angeles County,11,34.25361,-118.586341,31080,"Los Angeles-Long Beach-Anaheim, CA",1,348,"Los Angeles-Long Beach, CA",N,N,0630,06045,06027,2019-2020
060195513261,0601955,Lashon Academy,06,7477 Kester Ave.,Van Nuys,CA,91405,06,06037,Los Angeles County,11,34.206437,-118.458063,31080,"Los Angeles-Long Beach-Anaheim, CA",1,348,"Los Angeles-Long Beach, CA",N,N,0629,06046,06018,2019-2020
060195813902,0601958,Libertas College Preparatory Charter,06,3875 Dublin Ave.,Los Angeles,CA,90008,06,06037,Los Angeles County,11,34.01536,-118.322971,31080,"Los Angeles-Long Beach-Anaheim, CA",1,348,"Los Angeles-Long Beach, CA",N,N,0637,06054,06030,2019-2020
060195903261,0601959,Pacoima Charter Elementary,06,11016 Norris Ave.,Pacoima,CA,91331,06,06037,Los Angeles County,11,34.270359,-118.415591,31080,"Los Angeles-Long Beach-Anaheim, CA",1,348,"Los Angeles-Long Beach, CA",N,N,0629,06039,06018,2019-2020
060196012908,0601960,Animo James B. Taylor Charter Middle,06,810 E. 111th Pl.,Los Angeles,CA,90059,06,06037,Los Angeles County,11,33.935139,-118.260205,31080,"Los Angeles-Long Beach-Anaheim, CA",1,348,"Los Angeles-Long Beach, CA",N,N,0643,06064,06030,2019-2020
060196212855,0601962,Oxford Preparatory Academy - South Orange County,06,23000 Via Santa Maria,Mission Viejo,CA,92692,06,06059,Orange County,21,33.629195,-117.658375,31080,"Los Angeles-Long Beach-Anaheim, CA",1,348,"Los Angeles-Long Beach, CA",N,N,0645,06073,06036,2019-2020
060196514349,0601965,Soleil Academy Charter,06,3900 Agnes Ave.,Lynwood,CA,90262,06,06037,Los Angeles County,21,33.91663,-118.201771,31080,"Los Angeles-Long Beach-Anaheim, CA",1,348,"Los Angeles-Long Beach, CA",N,N,0644,06063,06033,2019-2020
060196813898,0601968,Ednovate - East College Prep,06,350 S. Figueroa Ste. 200,Los Angeles,CA,90071,06,06037,Los Angeles County,11,34.053707,-118.254825,31080,"Los Angeles-Long Beach-Anaheim, CA",1,348,"Los Angeles-Long Beach, CA",N,N,0634,06053,06030,2019-2020
060197312410,0601973,Da Vinci Design,06,12501 Isis Ave.,Hawthorne,CA,90250,06,06037,Los Angeles County,21,33.919336,-118.375083,31080,"Los Angeles-Long Beach-Anaheim, CA",1,348,"Los Angeles-Long Beach, CA",N,N,0643,06062,06035,2019-2020
060197414221,0601974,Vox Collegiate of Los Angeles,06,1100 W. Manchester Ave.,Los Angeles,CA,90044,06,06037,Los Angeles County,11,33.959698,-118.294189,31080,"Los Angeles-Long Beach-Anaheim, CA",1,348,"Los Angeles-Long Beach, CA",N,N,0643,06059,06030,2019-2020
060200013537,0602000,Camino Nuevo High #2,06,3500 W. Temple St.,Los Angeles,CA,90004,06,06037,Los Angeles County,11,34.07647,-118.285471,31080,"Los Angeles-Long Beach-Anaheim, CA",1,348,"Los Angeles-Long Beach, CA",N,N,0634,06053,06024,2019-2020
060200414117,0602004,Ednovate - Esperanza College Prep,06,319 N. Humphreys Ave.,East Los Angeles,CA,90022,06,06037,Los Angeles County,21,34.03922,-118.171921,31080,"Los Angeles-Long Beach-Anaheim, CA",1,348,"Los Angeles-Long Beach, CA",N,N,0640,06051,06024,2019-2020
060200711918,0602007,Pasadena Rosebud Academy,06,3544 N. Canon Blvd.,Altadena,CA,91001,06,06037,Los Angeles County,21,34.204949,-118.135016,31080,"Los Angeles-Long Beach-Anaheim, CA",1,348,"Los Angeles-Long Beach, CA",N,N,0627,06041,06025,2019-2020
060201713877,0602017,KIPP Promesa Prep,06,207 S. Dacotah St.,Los Angeles,CA,90063,06,06037,Los Angeles County,11,34.03786,-118.201731,31080,"Los Angeles-Long Beach-Anaheim, CA",1,348,"Los Angeles-Long Beach, CA",N,N,0634,06053,06024,2019-2020
060201812404,0602018,Barack Obama Charter,06,13305 S. San Pedro St.,Los Angeles,CA,90061,06,06037,Los Angeles County,21,33.911106,-118.271082,31080,"Los Angeles-Long Beach-Anaheim, CA",1,348,"Los Angeles-Long Beach, CA",N,N,0644,06064,06035,2019-2020
060201910853,0602019,Jardin de la Infancia,06,307 E. Seventh St.,Los Angeles,CA,90014,06,06037,Los Angeles County,11,34.042413,-118.248848,31080,"Los Angeles-Long Beach-Anaheim, CA",1,348,"Los Angeles-Long Beach, CA",N,N,0634,06053,06030,2019-2020
060202011324,0602020,KIPP Los Angeles College Preparatory,06,2810 Whittier Blvd.,Los Angeles,CA,90023,06,06037,Los Angeles County,11,34.03135,-118.209791,31080,"Los Angeles-Long Beach-Anaheim, CA",1,348,"Los Angeles-Long Beach, CA",N,N,0634,06053,06024,2019-2020
060202312570,0602023,Ingenium Charter,06,22250 Elkwood St.,Canoga Park,CA,91304,06,06037,Los Angeles County,11,34.21146,-118.612001,31080,"Los Angeles-Long Beach-Anaheim, CA",1,348,"Los Angeles-Long Beach, CA",N,N,0630,06045,06027,2019-2020
060202510845,0602025,Ivy Academia,06,7353 Valley Cir. Blvd.,West Hills,CA,91304,06,06037,Los Angeles County,11,34.20623,-118.656281,31080,"Los Angeles-Long Beach-Anaheim, CA",1,348,"Los Angeles-Long Beach, CA",N,N,0630,06045,06027,2019-2020
060203213789,0602032,Global Education Academy 2,06,1717 Seventh Ave.,Los Angeles,CA,90019,06,06037,Los Angeles County,11,34.04176,-118.326661,31080,"Los Angeles-Long Beach-Anaheim, CA",1,348,"Los Angeles-Long Beach, CA",N,N,0637,06054,06030,2019-2020
060204113760,0602041,KIPP Vida Preparatory Academy,06,4410 S. Budlong Ave.,Los Angeles,CA,90037,06,06037,Los Angeles County,11,34.00339,-118.295451,31080,"Los Angeles-Long Beach-Anaheim, CA",1,348,"Los Angeles-Long Beach, CA",N,N,0637,06059,06030,2019-2020
060204314046,0602043,Ednovate - Legacy College Prep.,06,1500 17th St.,Santa Ana,CA,92705,06,06059,Orange County,11,33.759599,-117.846931,31080,"Los Angeles-Long Beach-Anaheim, CA",1,348,"Los Angeles-Long Beach, CA",N,N,0646,06069,06034,2019-2020
060204514315,0602045,STEM Preparatory Elementary,06,1374 W. 35th St.,Los Angeles,CA,90007,06,06037,Los Angeles County,11,34.02433,-118.299711,31080,"Los Angeles-Long Beach-Anaheim, CA",1,348,"Los Angeles-Long Beach, CA",N,N,0637,06059,06030,2019-2020
060204813719,0602048,Grace Hopper STEM Academy,06,601 Grace Ave.,Inglewood,CA,90301,06,06037,Los Angeles County,21,33.969089,-118.346054,31080,"Los Angeles-Long Beach-Anaheim, CA",1,348,"Los Angeles-Long Beach, CA",N,N,0643,06062,06035,2019-2020
060205012708,0602050,Citizens of the World Charter School Hollywood,06,1316 N. Bronson Ave.,Los Angeles,CA,90028,06,06037,Los Angeles County,11,34.0948,-118.316841,31080,"Los Angeles-Long Beach-Anaheim, CA",1,348,"Los Angeles-Long Beach, CA",N,N,0628,06050,06024,2019-2020
060205113076,0602051,Samueli Academy,06,1901 N. Fairview St.,Santa Ana,CA,92706,06,06059,Orange County,11,33.76213,-117.902711,31080,"Los Angeles-Long Beach-Anaheim, CA",1,348,"Los Angeles-Long Beach, CA",N,N,0646,06069,06034,2019-2020
060205208504,0602052,Animo Leadership High,06,11044 S. Freeman Ave.,Inglewood,CA,90301,06,06037,Los Angeles County,21,33.934767,-118.347984,31080,"Los Angeles-Long Beach-Anaheim, CA",1,348,"Los Angeles-Long Beach, CA",N,N,0643,06062,06035,2019-2020
060205613002,0602056,KIPP Philosophers Academy,06,8300 S. Central Ave.,Los Angeles,CA,90001,06,06037,Los Angeles County,21,33.96348,-118.256071,31080,"Los Angeles-Long Beach-Anaheim, CA",1,348,"Los Angeles-Long Beach, CA",N,N,0640,06059,06033,2019-2020
060206013037,0602060,iLEAD Lancaster Charter,06,254 E. Ave. K-4,Lancaster,CA,93535,06,06037,Los Angeles County,21,34.671038,-118.126349,31080,"Los Angeles-Long Beach-Anaheim, CA",1,348,"Los Angeles-Long Beach, CA",N,N,0625,06036,06021,2019-2020
060206314249,0602063,Ingenium Clarion Charter Middle,06,13305 S. San Pedro St.,Los Angeles,CA,90061,06,06037,Los Angeles County,21,33.911106,-118.271082,31080,"Los Angeles-Long Beach-Anaheim, CA",1,348,"Los Angeles-Long Beach, CA",N,N,0644,06064,06035,2019-2020
060206612576,0602066,Children of Promise Preparatory Academy,06,3130 W. 111th Pl.,Inglewood,CA,90303,06,06037,Los Angeles County,21,33.933664,-118.327667,31080,"Los Angeles-Long Beach-Anaheim, CA",1,348,"Los Angeles-Long Beach, CA",N,N,0643,06062,06035,2019-2020
060207411929,0602074,Aveson School of Leaders,06,1919 E. Pinecrest Dr.,Altadena,CA,91001,06,06037,Los Angeles County,21,34.191976,-118.111955,31080,"Los Angeles-Long Beach-Anaheim, CA",1,348,"Los Angeles-Long Beach, CA",N,N,0627,06041,06025,2019-2020
060207608718,0602076,Environmental Charter High,06,16315 Grevillea Ave.,Lawndale,CA,90260,06,06037,Los Angeles County,21,33.882012,-118.355264,31080,"Los Angeles-Long Beach-Anaheim, CA",1,348,"Los Angeles-Long Beach, CA",N,N,0643,06062,06035,2019-2020
060207712805,0602077,Camino Nuevo Elementary School #3,06,1723 Cordova St.,Los Angeles,CA,90007,06,06037,Los Angeles County,11,34.039275,-118.295534,31080,"Los Angeles-Long Beach-Anaheim, CA",1,348,"Los Angeles-Long Beach, CA",N,N,0634,06053,06024,2019-2020
060207812276,0602078,Synergy Kinetic Academy,06,1420 E. Adams Blvd.,Los Angeles,CA,90011,06,06037,Los Angeles County,11,34.01529,-118.248301,31080,"Los Angeles-Long Beach-Anaheim, CA",1,348,"Los Angeles-Long Beach, CA",N,N,0640,06059,06030,2019-2020
060208008542,0602080,Journey,06,27102 Foxborough,Aliso Viejo,CA,92656,06,06059,Orange County,21,33.57033,-117.718132,31080,"Los Angeles-Long Beach-Anaheim, CA",1,348,"Los Angeles-Long Beach, CA",N,N,0648,06073,06036,2019-2020
060208213750,0602082,PUC Inspire Charter Academy,06,12550 Van Nuys Blvd.,Pacoima,CA,91331,06,06037,Los Angeles County,11,34.27668,-118.405691,31080,"Los Angeles-Long Beach-Anaheim, CA",1,348,"Los Angeles-Long Beach, CA",N,N,0629,06039,06018,2019-2020
060208312699,0602083,University Preparatory Value High,06,1929 W. Pico Blvd.,Los Angeles,CA,90006,06,06037,Los Angeles County,11,34.04683,-118.280821,31080,"Los Angeles-Long Beach-Anaheim, CA",1,348,"Los Angeles-Long Beach, CA",N,N,0634,06053,06024,2019-2020
060208513756,0602085,Everest Value,06,668 S. Catalina St.,Los Angeles,CA,90005,06,06037,Los Angeles County,11,34.06107,-118.295041,31080,"Los Angeles-Long Beach-Anaheim, CA",1,348,"Los Angeles-Long Beach, CA",N,N,0634,06053,06024,2019-2020
060208614317,0602086,Ingenium Wings Independent Study - Compton,06,400 S. Santa Fe Ave.,Compton,CA,90221,06,06037,Los Angeles County,21,33.89323,-118.215461,31080,"Los Angeles-Long Beach-Anaheim, CA",1,348,"Los Angeles-Long Beach, CA",N,N,0644,06064,06035,2019-2020
060209014271,0602090,Learning by Design Charter,06,7019 S. Van Ness Ave.,Los Angeles,CA,90047,06,06037,Los Angeles County,11,33.975676,-118.318058,31080,"Los Angeles-Long Beach-Anaheim, CA",1,348,"Los Angeles-Long Beach, CA",N,N,0637,06062,06030,2019-2020
060209212248,0602092,Alain Leroy Locke College Preparatory Academy,06,325 E. 111th St.,Los Angeles,CA,90061,06,06037,Los Angeles County,11,33.93455,-118.268331,31080,"Los Angeles-Long Beach-Anaheim, CA",1,348,"Los Angeles-Long Beach, CA",N,N,0643,06064,06030,2019-2020
060209310852,0602093,Bert Corona Charter,06,9400 Remick Ave.,Pacoima,CA,91331,06,06037,Los Angeles County,11,34.241122,-118.415898,31080,"Los Angeles-Long Beach-Anaheim, CA",1,348,"Los Angeles-Long Beach, CA",N,N,0629,06039,06018,2019-2020
060209614036,0602096,Animo Florence-Firestone Charter Middle,06,155 W. 69th St.,Los Angeles,CA,90003,06,06037,Los Angeles County,11,33.97819,-118.276091,31080,"Los Angeles-Long Beach-Anaheim, CA",1,348,"Los Angeles-Long Beach, CA",N,N,0640,06059,06030,2019-2020
060209911856,0602099,Ivy Bound Acad of Math Sci and Tech Charter Mid,06,15355 Morrison St.,Sherman Oaks,CA,91403,06,06037,Los Angeles County,11,34.16129,-118.468571,31080,"Los Angeles-Long Beach-Anaheim, CA",1,348,"Los Angeles-Long Beach, CA",N,N,0630,06046,06018,2019-2020
060210211657,0602102,PUC Excel Charter Academy,06,1855 N. Main St.,Los Angeles,CA,90031,06,06037,Los Angeles County,11,34.06661,-118.219813,31080,"Los Angeles-Long Beach-Anaheim, CA",1,348,"Los Angeles-Long Beach, CA",N,N,0634,06051,06024,2019-2020
060210512631,0602105,Animo Westside Charter Middle,06,5456 McConnell Ave.,Los Angeles,CA,90066,06,06037,Los Angeles County,11,33.9776,-118.418711,31080,"Los Angeles-Long Beach-Anaheim, CA",1,348,"Los Angeles-Long Beach, CA",N,N,0643,06062,06026,2019-2020
060211112044,0602111,Center for Advanced Learning,06,4016 S. Central Ave.,Los Angeles,CA,90011,06,06037,Los Angeles County,11,34.01066,-118.255961,31080,"Los Angeles-Long Beach-Anaheim, CA",1,348,"Los Angeles-Long Beach, CA",N,N,0640,06059,06033,2019-2020
060211314191,0602113,Unity Middle College High,06,1937 W. Chapman Ave.,Orange,CA,92868,06,06059,Orange County,12,33.78881,-117.873791,31080,"Los Angeles-Long Beach-Anaheim, CA",1,348,"Los Angeles-Long Beach, CA",N,N,0646,06068,06037,2019-2020
060211413742,0602114,Clemente Charter,06,5701 Fishburn Ave.,Maywood,CA,90270,06,06037,Los Angeles County,21,33.98941,-118.191151,31080,"Los Angeles-Long Beach-Anaheim, CA",1,348,"Los Angeles-Long Beach, CA",N,N,0640,06063,06033,2019-2020
060211613897,0602116,Bert Corona Charter High,06,12513 Gain St.,Pacoima,CA,91331,06,06037,Los Angeles County,11,34.271399,-118.404494,31080,"Los Angeles-Long Beach-Anaheim, CA",1,348,"Los Angeles-Long Beach, CA",N,N,0629,06039,06018,2019-2020
060211912567,0602119,Alliance Cindy and Bill Simon Technology Academy High,06,10720 S. Wilmington Ave.,Los Angeles,CA,90059,06,06037,Los Angeles County,11,33.938635,-118.23874,31080,"Los Angeles-Long Beach-Anaheim, CA",1,348,"Los Angeles-Long Beach, CA",N,N,0644,06064,06035,2019-2020
060212603000,0602126,Fenton Avenue Charter,06,11828 Gain St.,Lake View Terrace,CA,91342,06,06037,Los Angeles County,11,34.280228,-118.390582,31080,"Los Angeles-Long Beach-Anaheim, CA",1,348,"Los Angeles-Long Beach, CA",N,N,0629,06039,06018,2019-2020
060212813970,0602128,Equitas Academy 4,06,631 S. Commonwealth Ave.,Los Angeles,CA,90005,06,06037,Los Angeles County,11,34.058958,-118.281717,31080,"Los Angeles-Long Beach-Anaheim, CA",1,348,"Los Angeles-Long Beach, CA",N,N,0634,06053,06024,2019-2020
060213011223,0602130,Edward B. Cole Academy,06,333 E. Walnut St.,Santa Ana,CA,92701,06,06059,Orange County,11,33.74495,-117.863941,31080,"Los Angeles-Long Beach-Anaheim, CA",1,348,"Los Angeles-Long Beach, CA",N,N,0646,06069,06034,2019-2020
060213111337,0602131,Central City Value,06,221 N. W.moreland Ave.,Los Angeles,CA,90004,06,06037,Los Angeles County,11,34.07509,-118.288621,31080,"Los Angeles-Long Beach-Anaheim, CA",1,348,"Los Angeles-Long Beach, CA",N,N,0634,06053,06024,2019-2020
060213512869,0602135,PUC Early College Academy for Leaders and Scholars (ECALS),06,2050 San Fernando Rd.,Los Angeles,CA,90065,06,06037,Los Angeles County,11,34.102557,-118.239019,31080,"Los Angeles-Long Beach-Anaheim, CA",1,348,"Los Angeles-Long Beach, CA",N,N,0628,06051,06024,2019-2020
060213712191,0602137,Santa Clarita Valley International,06,28060 Hasley Canyon Rd. Ste. 200,Castaic,CA,91384,06,06037,Los Angeles County,21,34.450486,-118.624615,31080,"Los Angeles-Long Beach-Anaheim, CA",1,348,"Los Angeles-Long Beach, CA",N,N,0625,06038,06021,2019-2020
060213912474,0602139,Alliance College-Ready Middle Academy 5,06,211 S. Ave. 20,Los Angeles,CA,90031,06,06037,Los Angeles County,11,34.072208,-118.220433,31080,"Los Angeles-Long Beach-Anaheim, CA",1,348,"Los Angeles-Long Beach, CA",N,N,0634,06051,06024,2019-2020
060214012717,0602140,KIPP Empower Academy,06,8466 S. Figueroa St.,Los Angeles,CA,90003,06,06037,Los Angeles County,11,33.96174,-118.282181,31080,"Los Angeles-Long Beach-Anaheim, CA",1,348,"Los Angeles-Long Beach, CA",N,N,0643,06059,06030,2019-2020
060214213657,0602142,KIPP Iluminar Academy,06,4800 E. Cesar Chavez Ave.,Los Angeles,CA,90022,06,06037,Los Angeles County,21,34.04029,-118.161383,31080,"Los Angeles-Long Beach-Anaheim, CA",1,348,"Los Angeles-Long Beach, CA",N,N,0640,06051,06024,2019-2020
060214310866,0602143,Gabriella Charter,06,1435 Logan St.,Los Angeles,CA,90026,06,06037,Los Angeles County,11,34.079534,-118.257459,31080,"Los Angeles-Long Beach-Anaheim, CA",1,348,"Los Angeles-Long Beach, CA",N,N,0628,06051,06024,2019-2020
060214510838,0602145,N.E.W. Academy Canoga Park,06,21425 Cohasset St.,Canoga Park,CA,91303,06,06037,Los Angeles County,11,34.206659,-118.598059,31080,"Los Angeles-Long Beach-Anaheim, CA",1,348,"Los Angeles-Long Beach, CA",N,N,0630,06045,06027,2019-2020
060214612416,0602146,Today's Fresh Start Charter School Inglewood,06,3405 W. Imperial Hwy.,Inglewood,CA,90303,06,06037,Los Angeles County,21,33.93138,-118.332111,31080,"Los Angeles-Long Beach-Anaheim, CA",1,348,"Los Angeles-Long Beach, CA",N,N,0643,06062,06035,2019-2020
060215413004,0602154,KIPP Scholar Academy,06,1729 W. MLK Jr. Blvd.,Los Angeles,CA,90062,06,06037,Los Angeles County,11,34.011172,-118.310075,31080,"Los Angeles-Long Beach-Anaheim, CA",1,348,"Los Angeles-Long Beach, CA",N,N,0637,06054,06030,2019-2020
060217414324,0602174,iLead Agua Dulce,06,11311 Frascati St.,Agua Dulce,CA,91390,06,06037,Los Angeles County,41,34.4882,-118.331981,31080,"Los Angeles-Long Beach-Anaheim, CA",1,348,"Los Angeles-Long Beach, CA",N,N,0625,06038,06021,2019-2020
060217610851,0602176,Alliance Gertz-Ressler Richard Merkin 6-12 Complex,06,2023 S. Union Ave.,Los Angeles,CA,90007,06,06037,Los Angeles County,11,34.03659,-118.283101,31080,"Los Angeles-Long Beach-Anaheim, CA",1,348,"Los Angeles-Long Beach, CA",N,N,0637,06059,06030,2019-2020
060217812215,0602178,Goethe International Charter,06,12500 Braddock Dr.,Los Angeles,CA,90066,06,06037,Los Angeles County,11,33.98708,-118.419309,31080,"Los Angeles-Long Beach-Anaheim, CA",1,348,"Los Angeles-Long Beach, CA",N,N,0637,06062,06026,2019-2020
060218011207,0602180,School of Arts and Enterprise,06,295 N. Garey Ave.,Pomona,CA,91767,06,06037,Los Angeles County,21,34.06019,-117.750591,31080,"Los Angeles-Long Beach-Anaheim, CA",1,348,"Los Angeles-Long Beach, CA",N,N,0635,06052,06020,2019-2020
060218112028,0602181,Aveson Global Leadership Academy,06,575 W. Altadena Dr.,Altadena,CA,91001,06,06037,Los Angeles County,21,34.1985,-118.158441,31080,"Los Angeles-Long Beach-Anaheim, CA",1,348,"Los Angeles-Long Beach, CA",N,N,0627,06041,06025,2019-2020
060218208027,0602182,PUC Comm Charter Mid and PUC Comm Charter Early College High,06,11500 Eldridge Ave.,Lake View Terrace,CA,91342,06,06037,Los Angeles County,11,34.27994,-118.382161,31080,"Los Angeles-Long Beach-Anaheim, CA",1,348,"Los Angeles-Long Beach, CA",N,N,0629,06039,06018,2019-2020
060218613088,0602186,Citizens of the World Charter School Mar Vista,06,11561 Gateway Blvd.,Los Angeles,CA,90064,06,06037,Los Angeles County,11,34.031977,-118.442633,31080,"Los Angeles-Long Beach-Anaheim, CA",1,348,"Los Angeles-Long Beach, CA",N,N,0637,06054,06030,2019-2020
060218714269,0602187,Animo Compton Charter,06,13305 S. San Pedro St.,Los Angeles,CA,90061,06,06037,Los Angeles County,21,33.911106,-118.271082,31080,"Los Angeles-Long Beach-Anaheim, CA",1,348,"Los Angeles-Long Beach, CA",N,N,0644,06064,06035,2019-2020
060218912616,0602189,Para Los Ni?os - Evelyn Thurman Gratts Primary,06,474 S. Hartford Ave.,Los Angeles,CA,90017,06,06037,Los Angeles County,11,34.056079,-118.264098,31080,"Los Angeles-Long Beach-Anaheim, CA",1,348,"Los Angeles-Long Beach, CA",N,N,0634,06053,06024,2019-2020
060219012817,0602190,Alliance Susan and Eric Smidt Technology High,06,211 S. Ave. 20,Los Angeles,CA,90031,06,06037,Los Angeles County,11,34.072208,-118.220433,31080,"Los Angeles-Long Beach-Anaheim, CA",1,348,"Los Angeles-Long Beach, CA",N,N,0634,06051,06024,2019-2020
060219412010,0602194,Magnolia Science Academy 3,06,1254 E. Helmick St.,Carson,CA,90746,06,06037,Los Angeles County,13,33.85017,-118.251221,31080,"Los Angeles-Long Beach-Anaheim, CA",1,348,"Los Angeles-Long Beach, CA",N,N,0644,06064,06035,2019-2020
060219513732,0602195,New Opportunities Charter,06,110 S. La Brea Ave.,Inglewood,CA,90301,06,06037,Los Angeles County,21,33.96271,-118.352651,31080,"Los Angeles-Long Beach-Anaheim, CA",1,348,"Los Angeles-Long Beach, CA",N,N,0643,06062,06035,2019-2020
060219612950,0602196,Aspire Slauson Academy Charter,06,123 W. 59th St.,Los Angeles,CA,90003,06,06037,Los Angeles County,11,33.98717,-118.274751,31080,"Los Angeles-Long Beach-Anaheim, CA",1,348,"Los Angeles-Long Beach, CA",N,N,0640,06059,06030,2019-2020
060219912650,0602199,Life Source International Charter,06,44339 Beech Ave.,Lancaster,CA,93534,06,06037,Los Angeles County,21,34.6883,-118.137501,31080,"Los Angeles-Long Beach-Anaheim, CA",1,348,"Los Angeles-Long Beach, CA",N,N,0625,06036,06021,2019-2020
060220013471,0602200,Intellectual Virtues Academy of Long Beach,06,3601 Linden Ave.,Long Beach,CA,90807,06,06037,Los Angeles County,11,33.82301,-118.187241,31080,"Los Angeles-Long Beach-Anaheim, CA",1,348,"Los Angeles-Long Beach, CA",N,N,0647,06070,06033,2019-2020
060220212622,0602202,TEACH Academy of Technologies,06,10045 S. W.ern Ave.,Los Angeles,CA,90047,06,06037,Los Angeles County,11,33.94402,-118.309361,31080,"Los Angeles-Long Beach-Anaheim, CA",1,348,"Los Angeles-Long Beach, CA",N,N,0643,06062,06030,2019-2020
060220512322,0602205,Magnolia Science Academy 6,06,3754 Dunn Dr.,Los Angeles,CA,90034,06,06037,Los Angeles County,11,34.02431,-118.400131,31080,"Los Angeles-Long Beach-Anaheim, CA",1,348,"Los Angeles-Long Beach, CA",N,N,0637,06054,06030,2019-2020
060220603050,0602206,Granada Hills Charter,06,10535 Zelzah Ave.,Granada Hills,CA,91344,06,06037,Los Angeles County,11,34.261475,-118.52446,31080,"Los Angeles-Long Beach-Anaheim, CA",1,348,"Los Angeles-Long Beach, CA",N,N,0630,06038,06018,2019-2020
060221014050,0602210,Kinetic Academy,06,721 Utica Ave.,Huntington Beach,CA,92648,06,06059,Orange County,21,33.67632,-117.989891,31080,"Los Angeles-Long Beach-Anaheim, CA",1,348,"Los Angeles-Long Beach, CA",N,N,0648,06074,06037,2019-2020
060221314196,0602213,WISH Community,06,6550 W. 80th St.,Los Angeles,CA,90045,06,06037,Los Angeles County,11,33.96773,-118.403931,31080,"Los Angeles-Long Beach-Anaheim, CA",1,348,"Los Angeles-Long Beach, CA",N,N,0643,06062,06026,2019-2020
060221514355,0602215,Da Vinci RISE High,06,201 N. Douglas St.,El Segundo,CA,90245,06,06037,Los Angeles County,21,33.908911,-118.377805,31080,"Los Angeles-Long Beach-Anaheim, CA",1,348,"Los Angeles-Long Beach, CA",N,N,0643,06062,06035,2019-2020
060221813348,0602218,PREPA TEC - Los Angeles,06,2665 Clarendon Ave.,Huntington Park,CA,90255,06,06037,Los Angeles County,21,33.98381,-118.223501,31080,"Los Angeles-Long Beach-Anaheim, CA",1,348,"Los Angeles-Long Beach, CA",N,N,0640,06053,06033,2019-2020
060221911640,0602219,Animo Watts College Preparatory Academy,06,12628 Avalon Blvd.,Los Angeles,CA,90061,06,06037,Los Angeles County,21,33.91795,-118.264861,31080,"Los Angeles-Long Beach-Anaheim, CA",1,348,"Los Angeles-Long Beach, CA",N,N,0644,06064,06035,2019-2020
060222610833,0602226,Ocean Charter,06,12606 Culver Blvd.,Los Angeles,CA,90066,06,06037,Los Angeles County,11,33.98697,-118.423501,31080,"Los Angeles-Long Beach-Anaheim, CA",1,348,"Los Angeles-Long Beach, CA",N,N,0637,06062,06026,2019-2020
060222810846,0602228,Synergy Charter Academy,06,900 E. 33rd St.,Los Angeles,CA,90011,06,06037,Los Angeles County,11,34.014047,-118.259976,31080,"Los Angeles-Long Beach-Anaheim, CA",1,348,"Los Angeles-Long Beach, CA",N,N,0640,06059,06030,2019-2020
060223012197,0602230,YouthBuild Charter School of California,06,155 W. Washington Blvd. Ste. 517,Los Angeles,CA,90015,06,06037,Los Angeles County,11,34.03212,-118.266141,31080,"Los Angeles-Long Beach-Anaheim, CA",1,348,"Los Angeles-Long Beach, CA",N,N,0637,06059,06030,2019-2020
060223113851,0602231,Collegiate Charter High School of Los Angeles,06,312 N. Record Ave.,Los Angeles,CA,90063,06,06037,Los Angeles County,21,34.039635,-118.181906,31080,"Los Angeles-Long Beach-Anaheim, CA",1,348,"Los Angeles-Long Beach, CA",N,N,0640,06051,06024,2019-2020
060223511313,0602235,Oscar De La Hoya Animo Charter High,06,1114 S. Lorena St.,Los Angeles,CA,90023,06,06037,Los Angeles County,11,34.02321,-118.203421,31080,"Los Angeles-Long Beach-Anaheim, CA",1,348,"Los Angeles-Long Beach, CA",N,N,0634,06053,06024,2019-2020
060223708508,0602237,Camino Nuevo Charter Academy,06,697 S. Burlington Ave.,Los Angeles,CA,90057,06,06037,Los Angeles County,11,34.055536,-118.273602,31080,"Los Angeles-Long Beach-Anaheim, CA",1,348,"Los Angeles-Long Beach, CA",N,N,0634,06053,06024,2019-2020
060224112782,0602241,ISANA Octavia Academy,06,3010 Estara Ave.,Los Angeles,CA,90065,06,06037,Los Angeles County,11,34.11756,-118.241521,31080,"Los Angeles-Long Beach-Anaheim, CA",1,348,"Los Angeles-Long Beach, CA",N,N,0634,06051,06024,2019-2020
060224212019,0602242,Fenton Primary Center,06,11351 Dronfield Ave.,Pacoima,CA,91331,06,06037,Los Angeles County,11,34.27636,-118.403711,31080,"Los Angeles-Long Beach-Anaheim, CA",1,348,"Los Angeles-Long Beach, CA",N,N,0629,06039,06018,2019-2020
060224300688,0602243,Orange County Academy of Sciences and Arts,06,29292 Crown Valley Pkwy.,Laguna Niguel,CA,92677,06,06059,Orange County,21,33.53592,-117.696441,31080,"Los Angeles-Long Beach-Anaheim, CA",1,348,"Los Angeles-Long Beach, CA",N,N,0648,06073,06036,2019-2020
060224510992,0602245,Orange County Educational Arts Academy,06,825 N. BRd.way,Santa Ana,CA,92701,06,06059,Orange County,11,33.752618,-117.869165,31080,"Los Angeles-Long Beach-Anaheim, CA",1,348,"Los Angeles-Long Beach, CA",N,N,0646,06069,06034,2019-2020
060224910526,0602249,Para Los Ni?os Charter,06,1617 E. Seventh St.,Los Angeles,CA,90021,06,06037,Los Angeles County,11,34.03518,-118.236831,31080,"Los Angeles-Long Beach-Anaheim, CA",1,348,"Los Angeles-Long Beach, CA",N,N,0634,06053,06024,2019-2020
060225412235,0602254,Magnolia Science Academy 7,06,18355 Roscoe Blvd.,Northridge,CA,91325,06,06037,Los Angeles County,11,34.22183,-118.534051,31080,"Los Angeles-Long Beach-Anaheim, CA",1,348,"Los Angeles-Long Beach, CA",N,N,0630,06045,06018,2019-2020
060225511889,0602255,Discovery Charter Preparatory #2,06,13570 Eldridge Ave.,Sylmar,CA,91342,06,06037,Los Angeles County,11,34.318989,-118.424839,31080,"Los Angeles-Long Beach-Anaheim, CA",1,348,"Los Angeles-Long Beach, CA",N,N,0629,06039,06018,2019-2020
060225613895,0602256,Valiente College Preparatory Charter,06,8691 CA Ave.,South Gate,CA,90280,06,06037,Los Angeles County,21,33.95498,-118.206661,31080,"Los Angeles-Long Beach-Anaheim, CA",1,348,"Los Angeles-Long Beach, CA",N,N,0644,06063,06033,2019-2020
060225710849,0602257,Animo Pat Brown,06,8255 Beach St.,Los Angeles,CA,90001,06,06037,Los Angeles County,21,33.96309,-118.242601,31080,"Los Angeles-Long Beach-Anaheim, CA",1,348,"Los Angeles-Long Beach, CA",N,N,0640,06059,06033,2019-2020
060226212761,0602262,Aspire Firestone Academy Charter,06,8929 Kauffman Ave.,South Gate,CA,90280,06,06037,Los Angeles County,21,33.95158,-118.189391,31080,"Los Angeles-Long Beach-Anaheim, CA",1,348,"Los Angeles-Long Beach, CA",N,N,0644,06063,06033,2019-2020
060226312194,0602263,ICEF Innovation Los Angeles Charter,06,5029 S. Vermont Ave.,Los Angeles,CA,90043,06,06037,Los Angeles County,11,33.997377,-118.291876,31080,"Los Angeles-Long Beach-Anaheim, CA",1,348,"Los Angeles-Long Beach, CA",N,N,0637,06059,06030,2019-2020
060226403194,0602264,Montague Charter Academy,06,13000 Montague St.,Pacoima,CA,91331,06,06037,Los Angeles County,11,34.244481,-118.415022,31080,"Los Angeles-Long Beach-Anaheim, CA",1,348,"Los Angeles-Long Beach, CA",N,N,0629,06039,06018,2019-2020
060226511312,0602265,CATCH Prep Charter High Inc.,06,4120 11th Ave.,Los Angeles,CA,90008,06,06037,Los Angeles County,11,34.00965,-118.328351,31080,"Los Angeles-Long Beach-Anaheim, CA",1,348,"Los Angeles-Long Beach, CA",N,N,0637,06054,06030,2019-2020
060226611641,0602266,Alliance Ouchi-O'Donovan 6-12 Complex,06,5356 S. Fifth Ave.,Los Angeles,CA,90043,06,06037,Los Angeles County,11,33.993479,-118.322093,31080,"Los Angeles-Long Beach-Anaheim, CA",1,348,"Los Angeles-Long Beach, CA",N,N,0637,06054,06030,2019-2020
060227013114,0602270,Citizens of the World Charter School Silver Lake,06,110 N. Coronado St.,Los Angeles,CA,90026,06,06037,Los Angeles County,11,34.069277,-118.275479,31080,"Los Angeles-Long Beach-Anaheim, CA",1,348,"Los Angeles-Long Beach, CA",N,N,0634,06051,06024,2019-2020
060227214331,0602272,Tomorrow's Leadership Collaborative (TLC) Charter,06,1130 E. Walnut Ave.,Orange,CA,92867,06,06059,Orange County,12,33.794463,-117.841227,31080,"Los Angeles-Long Beach-Anaheim, CA",1,348,"Los Angeles-Long Beach, CA",N,N,0646,06068,06037,2019-2020
060227912848,0602279,Alliance Renee and Meyer Luskin Academy High,06,2941 W. 70th St.,Los Angeles,CA,90043,06,06037,Los Angeles County,11,33.97707,-118.325721,31080,"Los Angeles-Long Beach-Anaheim, CA",1,348,"Los Angeles-Long Beach, CA",N,N,0637,06062,06030,2019-2020
060228312537,0602283,PUC Santa Rosa Charter Academy,06,3838 Eagle Rock Blvd.,Los Angeles,CA,90065,06,06037,Los Angeles County,11,34.11861,-118.230671,31080,"Los Angeles-Long Beach-Anaheim, CA",1,348,"Los Angeles-Long Beach, CA",N,N,0634,06051,06024,2019-2020
060228408546,0602284,OCSA,06,1010 N. Main St.,Santa Ana,CA,92701,06,06059,Orange County,11,33.75406,-117.868181,31080,"Los Angeles-Long Beach-Anaheim, CA",1,348,"Los Angeles-Long Beach, CA",N,N,0646,06069,06034,2019-2020
060228912572,0602289,Alliance Tennenbaum Family Technology High,06,2050 N. San Fernando Rd.,Los Angeles,CA,90065,06,06037,Los Angeles County,11,34.102979,-118.239385,31080,"Los Angeles-Long Beach-Anaheim, CA",1,348,"Los Angeles-Long Beach, CA",N,N,0628,06051,06024,2019-2020
060229110895,0602291,Academia Avance Charter,06,115 N. Ave. 53,Highland Park,CA,90042,06,06037,Los Angeles County,11,34.107778,-118.19825,31080,"Los Angeles-Long Beach-Anaheim, CA",1,348,"Los Angeles-Long Beach, CA",N,N,0634,06051,06024,2019-2020
060229313702,0602293,Da Vinci Connect,06,13500 Aviation Blvd.,Hawthorne,CA,90250,06,06037,Los Angeles County,21,33.908,-118.376481,31080,"Los Angeles-Long Beach-Anaheim, CA",1,348,"Los Angeles-Long Beach, CA",N,N,0643,06062,06035,2019-2020
060229414433,0602294,San Diego Mission Academy,06,9512 Chesapeake Dr.,San Diego,CA,92123,06,06037,Los Angeles County,11,34.277446,-118.405019,31080,"Los Angeles-Long Beach-Anaheim, CA",1,348,"Los Angeles-Long Beach, CA",N,N,0629,06039,06018,2019-2020
060229712253,0602297,New Millennium Secondary,06,1301 W. 182nd St.,Gardena,CA,90248,06,06037,Los Angeles County,11,33.867695,-118.295449,31080,"Los Angeles-Long Beach-Anaheim, CA",1,348,"Los Angeles-Long Beach, CA",N,N,0643,06066,06035,2019-2020
060230010530,0602300,ICEF View Park Preparatory Middle,06,5311 Crenshaw Blvd.,Los Angeles,CA,90043,06,06037,Los Angeles County,11,33.99436,-118.331351,31080,"Los Angeles-Long Beach-Anaheim, CA",1,348,"Los Angeles-Long Beach, CA",N,N,0637,06054,06030,2019-2020
060230714151,0602307,Animo City of Champions Charter High,06,9330 S. Eighth Ave.,Inglewood,CA,90305,06,06037,Los Angeles County,21,33.952524,-118.325036,31080,"Los Angeles-Long Beach-Anaheim, CA",1,348,"Los Angeles-Long Beach, CA",N,N,0643,06062,06035,2019-2020
060231111221,0602311,Opportunities for Learning - Capistrano,06,31878 Del Obispo St. Ste. 105,San Juan Capistrano,CA,92675,06,06059,Orange County,21,33.498069,-117.659584,31080,"Los Angeles-Long Beach-Anaheim, CA",1,348,"Los Angeles-Long Beach, CA",N,N,0649,06073,06036,2019-2020
060231714034,0602317,Citrus Springs Charter,06,2121 N. Grand Ave.,Santa Ana,CA,92705,06,06059,Orange County,11,33.76487,-117.850311,31080,"Los Angeles-Long Beach-Anaheim, CA",1,348,"Los Angeles-Long Beach, CA",N,N,0646,06069,06034,2019-2020
060231911842,0602319,Magnolia Science Academy 2,06,17125 Victory Blvd.,Van Nuys,CA,91406,06,06037,Los Angeles County,11,34.187102,-118.506941,31080,"Los Angeles-Long Beach-Anaheim, CA",1,348,"Los Angeles-Long Beach, CA",N,N,0630,06046,06027,2019-2020
060232214281,0602322,Stella Elementary Charter Academy,06,2636 S. Mansfield Ave.,Los Angeles,CA,90016,06,06037,Los Angeles County,11,34.031573,-118.352315,31080,"Los Angeles-Long Beach-Anaheim, CA",1,348,"Los Angeles-Long Beach, CA",N,N,0637,06054,06030,2019-2020
060232510893,0602325,James Jordan Middle,06,7911 Winnetka Ave.,Winnetka,CA,91306,06,06037,Los Angeles County,11,34.21444,-118.571851,31080,"Los Angeles-Long Beach-Anaheim, CA",1,348,"Los Angeles-Long Beach, CA",N,N,0630,06045,06027,2019-2020
060232913868,0602329,Public Policy Charter,06,1701 Browning Blvd.,Los Angeles,CA,90062,06,06037,Los Angeles County,11,34.012101,-118.309224,31080,"Los Angeles-Long Beach-Anaheim, CA",1,348,"Los Angeles-Long Beach, CA",N,N,0637,06054,06030,2019-2020
060233112651,0602331,Community Roots Academy,06,29292 Crown Valley Pkwy.,Laguna Niguel,CA,92677,06,06059,Orange County,21,33.535847,-117.696169,31080,"Los Angeles-Long Beach-Anaheim, CA",1,348,"Los Angeles-Long Beach, CA",N,N,0648,06073,06036,2019-2020
060233213378,0602332,Metro Charter,06,2635 Pasadena Ave.,Los Angeles,CA,90031,06,06037,Los Angeles County,11,34.07809,-118.216061,31080,"Los Angeles-Long Beach-Anaheim, CA",1,348,"Los Angeles-Long Beach, CA",N,N,0634,06051,06024,2019-2020
060233512967,0602335,Aspire Juanita Tate Academy Charter,06,123 W. 59th St.,Los Angeles,CA,90003,06,06037,Los Angeles County,11,33.98717,-118.274751,31080,"Los Angeles-Long Beach-Anaheim, CA",1,348,"Los Angeles-Long Beach, CA",N,N,0640,06059,06030,2019-2020
060234412690,0602344,Animo Jefferson Charter Middle,06,1655 E. 27th St.,Los Angeles,CA,90011,06,06037,Los Angeles County,11,34.0127,-118.2439,31080,"Los Angeles-Long Beach-Anaheim, CA",1,348,"Los Angeles-Long Beach, CA",N,N,0640,06059,06033,2019-2020
